[
  {
    "code": "AA",
    "name": "ATARIA",
    "name_other": "ATARIA",
    "lat": "27.172786",
    "long": "80.860969"
  },
  {
    "code": "AABH",
    "name": "AMBIKA BHAWANI HALT",
    "name_other": "AMBIKA BHAWANI HALT",
    "lat": "25.751932",
    "long": "84.969467"
  },
  {
    "code": "AADR",
    "name": "AMB ANDAURA",
    "name_other": "AMB ANDAURA",
    "lat": "31.670257",
    "long": "76.109921"
  },
  {
    "code": "AAG",
    "name": "ANGAR",
    "name_other": "ANGAR",
    "lat": "17.954500",
    "long": "75.600100"
  },
  {
    "code": "AAGH",
    "name": "ANTAGARH",
    "name_other": "ANTAGARH",
    "lat": "",
    "long": ""
  },
  {
    "code": "AAH",
    "name": "ITEHAR",
    "name_other": "ITEHAR",
    "lat": "26.562500",
    "long": "78.683600"
  },
  {
    "code": "AAK",
    "name": "ANKAIKILA",
    "name_other": "ANKAIKILA",
    "lat": "20.183107",
    "long": "74.453487"
  },
  {
    "code": "AAL",
    "name": "AMLAI",
    "name_other": "AMLAI",
    "lat": "23.173100",
    "long": "81.593200"
  },
  {
    "code": "AAM",
    "name": "ANGADIPPURAM",
    "name_other": "ANGADIPPURAM",
    "lat": "10.979069",
    "long": "76.206923"
  },
  {
    "code": "AAP",
    "name": "AMBIAPUR",
    "name_other": "AMBIAPUR",
    "lat": "26.514900",
    "long": "79.826400"
  },
  {
    "code": "AAR",
    "name": "ADESAR",
    "name_other": "ADESAR",
    "lat": "23.560840",
    "long": "70.982666"
  },
  {
    "code": "AAS",
    "name": "ASRANADA",
    "name_other": "ASRANADA",
    "lat": "26.397444",
    "long": "73.305395"
  },
  {
    "code": "AAY",
    "name": "ARALVAYMOLI",
    "name_other": "ARALVAYMOLI",
    "lat": "8.249207",
    "long": "77.529302"
  },
  {
    "code": "AB",
    "name": "AMBUR",
    "name_other": "AMBUR",
    "lat": "12.783300",
    "long": "78.721600"
  },
  {
    "code": "ABB",
    "name": "ABADA",
    "name_other": "ABADA",
    "lat": "22.547700",
    "long": "88.199200"
  },
  {
    "code": "ABD",
    "name": "AMBLI ROAD",
    "name_other": "AMBLI ROAD",
    "lat": "23.053870",
    "long": "72.493544"
  },
  {
    "code": "ABE",
    "name": "AMBIKESHWAR",
    "name_other": "AMBIKESHWAR",
    "lat": "26.368187",
    "long": "77.963448"
  },
  {
    "code": "ABFC",
    "name": "AMBARI FALAKATA",
    "name_other": "AMBARI FALAKATA",
    "lat": "26.641200",
    "long": "88.510300"
  },
  {
    "code": "ABGM",
    "name": "AMBALGRAM",
    "name_other": "AMBALGRAM",
    "lat": "23.688390",
    "long": "88.081684"
  },
  {
    "code": "ABGT",
    "name": "ARABAGATTA HALT",
    "name_other": "ARABAGATTA HALT",
    "lat": "13.907408",
    "long": "76.134911"
  },
  {
    "code": "ABH",
    "name": "AMBARNATH",
    "name_other": "AMBARNATH",
    "lat": "19.210042",
    "long": "73.184416"
  },
  {
    "code": "ABI",
    "name": "AMBATURAI",
    "name_other": "AMBATURAI",
    "lat": "10.271700",
    "long": "77.924000"
  },
  {
    "code": "ABKA",
    "name": "AMBIKA KALNA",
    "name_other": "AMBIKA KALNA",
    "lat": "23.211800",
    "long": "88.354400"
  },
  {
    "code": "ABKP",
    "name": "AMBIKAPUR",
    "name_other": "AMBIKAPUR",
    "lat": "23.136800",
    "long": "83.144900"
  },
  {
    "code": "ABLE",
    "name": "AMBALE",
    "name_other": "AMBALE",
    "lat": "18.406818",
    "long": "74.139004"
  },
  {
    "code": "ABO",
    "name": "ASTHAL BOHAR",
    "name_other": "ASTHAL BOHAR",
    "lat": "28.857900",
    "long": "76.629200"
  },
  {
    "code": "ABP",
    "name": "AKBARPUR",
    "name_other": "AKBARPUR",
    "lat": "26.429998",
    "long": "82.539253"
  },
  {
    "code": "ABR",
    "name": "ABU ROAD",
    "name_other": "ABU ROAD",
    "lat": "24.471135",
    "long": "72.776055"
  },
  {
    "code": "ABRV",
    "name": "AMBARI RICHHAVI",
    "name_other": "AMBARI RICHHAVI",
    "lat": "22.319550",
    "long": "74.272202"
  },
  {
    "code": "ABS",
    "name": "ABOHAR",
    "name_other": "ABOHAR",
    "lat": "30.139300",
    "long": "74.193900"
  },
  {
    "code": "ABSA",
    "name": "AMBASA",
    "name_other": "AMBASA",
    "lat": "23.930877",
    "long": "91.861153"
  },
  {
    "code": "ABT",
    "name": "AMBAGARATTUR",
    "name_other": "AMBAGARATTUR",
    "lat": "",
    "long": ""
  },
  {
    "code": "ABU",
    "name": "AMBATTUR",
    "name_other": "AMBATTUR",
    "lat": "13.114100",
    "long": "80.153400"
  },
  {
    "code": "ABW",
    "name": "ABUTARA",
    "name_other": "ABUTARA",
    "lat": "26.078140",
    "long": "89.634790"
  },
  {
    "code": "ABX",
    "name": "AMBARI",
    "name_other": "AMBARI",
    "lat": "19.695688",
    "long": "78.227291"
  },
  {
    "code": "ABY",
    "name": "AMBIVLI",
    "name_other": "AMBIVLI",
    "lat": "19.267300",
    "long": "73.171500"
  },
  {
    "code": "ACG",
    "name": "ACHEGAON",
    "name_other": "ACHEGAON",
    "lat": "20.976187",
    "long": "75.934217"
  },
  {
    "code": "ACH",
    "name": "ACHALGANJ",
    "name_other": "ACHALGANJ",
    "lat": "26.445000",
    "long": "80.545800"
  },
  {
    "code": "ACK",
    "name": "ACHARAPAKKAM",
    "name_other": "ACHARAPAKKAM",
    "lat": "12.406700",
    "long": "79.821600"
  },
  {
    "code": "ACL",
    "name": "ANCHELI",
    "name_other": "ANCHELI",
    "lat": "20.845400",
    "long": "72.945200"
  },
  {
    "code": "ACLE",
    "name": "AZIMGANJ CITY",
    "name_other": "AZIMGANJ CITY",
    "lat": "24.237600",
    "long": "88.258500"
  },
  {
    "code": "ACN",
    "name": "ADHICHCHANUR",
    "name_other": "ADHICHCHANUR",
    "lat": "12.054430",
    "long": "79.182758"
  },
  {
    "code": "ACND",
    "name": "A N DEV NAGAR",
    "name_other": "A N DEV NAGAR",
    "lat": "26.774886",
    "long": "82.157307"
  },
  {
    "code": "ACPR",
    "name": "ARCHIPATHAR",
    "name_other": "ARCHIPATHAR",
    "lat": "27.707087",
    "long": "94.849262"
  },
  {
    "code": "ACRN",
    "name": "ACHIRNE",
    "name_other": "ACHIRNE",
    "lat": "16.446711",
    "long": "73.743684"
  },
  {
    "code": "ACU",
    "name": "ACHUARA HALT",
    "name_other": "ACHUARA HALT",
    "lat": "25.452730",
    "long": "85.661087"
  },
  {
    "code": "AD",
    "name": "ADONI",
    "name_other": "ADONI",
    "lat": "15.616700",
    "long": "77.274500"
  },
  {
    "code": "ADB",
    "name": "ADILABAD",
    "name_other": "ADILABAD",
    "lat": "19.680414",
    "long": "78.535595"
  },
  {
    "code": "ADD",
    "name": "ADAS ROAD",
    "name_other": "ADAS ROAD",
    "lat": "22.489700",
    "long": "73.031400"
  },
  {
    "code": "ADE",
    "name": "ADARI ROAD",
    "name_other": "ADARI ROAD",
    "lat": "20.986845",
    "long": "70.330868"
  },
  {
    "code": "ADF",
    "name": "ADINA",
    "name_other": "ADINA",
    "lat": "25.114300",
    "long": "88.123100"
  },
  {
    "code": "ADH",
    "name": "ANDHERI",
    "name_other": "ANDHERI",
    "lat": "19.117139",
    "long": "72.846563"
  },
  {
    "code": "ADHL",
    "name": "ADIHALLI",
    "name_other": "ADIHALLI",
    "lat": "13.275400",
    "long": "76.374000"
  },
  {
    "code": "ADHT",
    "name": "ASHOKDHAM",
    "name_other": "ASHOKDHAM",
    "lat": "0.000000",
    "long": "0.000000"
  },
  {
    "code": "ADI",
    "name": "AHMEDABAD JN",
    "name_other": "AHMEDABAD JN",
    "lat": "23.025475",
    "long": "72.601476"
  },
  {
    "code": "ADL",
    "name": "ANDUL",
    "name_other": "ANDUL",
    "lat": "22.575400",
    "long": "88.239900"
  },
  {
    "code": "ADPT",
    "name": "ANDIPATTI",
    "name_other": "ANDIPATTI",
    "lat": "9.993800",
    "long": "77.619000"
  },
  {
    "code": "ADQ",
    "name": "ADHIKARI",
    "name_other": "ADHIKARI",
    "lat": "26.577142",
    "long": "88.170132"
  },
  {
    "code": "ADR",
    "name": "MANDI ADAMPUR",
    "name_other": "MANDI ADAMPUR",
    "lat": "29.282800",
    "long": "75.468500"
  },
  {
    "code": "ADRA",
    "name": "ADRA",
    "name_other": "ADRA",
    "lat": "23.495602",
    "long": "86.674275"
  },
  {
    "code": "ADRE",
    "name": "ADRA EAST CABIN",
    "name_other": "ADRA EAST CABIN",
    "lat": "23.493162",
    "long": "86.693261"
  },
  {
    "code": "ADSR",
    "name": "ADVANCE STARTER",
    "name_other": "ADVANCE STARTER",
    "lat": "24.909715",
    "long": "84.192584"
  },
  {
    "code": "ADST",
    "name": "ADI SAPTAGRAM",
    "name_other": "ADI SAPTAGRAM",
    "lat": "22.954600",
    "long": "88.379002"
  },
  {
    "code": "ADT",
    "name": "ADUTURAI",
    "name_other": "ADUTURAI",
    "lat": "11.008600",
    "long": "79.478100"
  },
  {
    "code": "ADTL",
    "name": "ADHARTAL",
    "name_other": "ADHARTAL",
    "lat": "23.227859",
    "long": "79.972744"
  },
  {
    "code": "ADTP",
    "name": "ADITYAPUR",
    "name_other": "ADITYAPUR",
    "lat": "22.782592",
    "long": "86.159334"
  },
  {
    "code": "ADVI",
    "name": "ADAVALI",
    "name_other": "ADAVALI",
    "lat": "16.921673",
    "long": "73.592434"
  },
  {
    "code": "ADX",
    "name": "ADAPUR",
    "name_other": "ADAPUR",
    "lat": "26.925131",
    "long": "84.942169"
  },
  {
    "code": "AE",
    "name": "AMRELI",
    "name_other": "AMRELI",
    "lat": "21.607900",
    "long": "71.228100"
  },
  {
    "code": "AED",
    "name": "AULENDA",
    "name_other": "AULENDA",
    "lat": "27.029300",
    "long": "77.612700"
  },
  {
    "code": "AEH",
    "name": "ANANT PAITH",
    "name_other": "ANANT PAITH",
    "lat": "26.035400",
    "long": "78.227000"
  },
  {
    "code": "AEJ",
    "name": "ARNEJ",
    "name_other": "ARNEJ",
    "lat": "22.581918",
    "long": "72.268152"
  },
  {
    "code": "AEK",
    "name": "ANEKAL ROAD",
    "name_other": "ANEKAL ROAD",
    "lat": "12.723400",
    "long": "77.710200"
  },
  {
    "code": "AEL",
    "name": "ATELI",
    "name_other": "ATELI",
    "lat": "28.099900",
    "long": "76.252900"
  },
  {
    "code": "AEP",
    "name": "AMRELI PARA",
    "name_other": "AMRELI PARA",
    "lat": "21.595800",
    "long": "71.221300"
  },
  {
    "code": "AEX",
    "name": "ADDERI",
    "name_other": "ADDERI",
    "lat": "14.140900",
    "long": "75.157800"
  },
  {
    "code": "AF",
    "name": "AGRA FORT",
    "name_other": "AGRA FORT",
    "lat": "27.183188",
    "long": "78.018980"
  },
  {
    "code": "AFGB",
    "name": "ARYA FREIGHT TERMINAL PRIVATE LIMITED",
    "name_other": "ARYA FREIGHT TERMINAL PRIVATE LIMITED",
    "lat": "0.000000",
    "long": "0.000000"
  },
  {
    "code": "AFK",
    "name": "ANGAMALI",
    "name_other": "ANGAMALI",
    "lat": "10.183400",
    "long": "76.377600"
  },
  {
    "code": "AFR",
    "name": "ASAFPUR",
    "name_other": "ASAFPUR",
    "lat": "28.405293",
    "long": "78.905697"
  },
  {
    "code": "AG",
    "name": "ARANGHATA",
    "name_other": "ARANGHATA",
    "lat": "23.241977",
    "long": "88.613491"
  },
  {
    "code": "AGA",
    "name": "AGRA CITY",
    "name_other": "AGRA CITY",
    "lat": "27.194323",
    "long": "78.015525"
  },
  {
    "code": "AGAE",
    "name": "AGRADWIP",
    "name_other": "AGRADWIP",
    "lat": "23.580900",
    "long": "88.226100"
  },
  {
    "code": "AGAS",
    "name": "AGAS",
    "name_other": "AGAS",
    "lat": "22.501800",
    "long": "72.883700"
  },
  {
    "code": "AGB",
    "name": "AMBAGAON",
    "name_other": "AMBAGAON",
    "lat": "19.062000",
    "long": "82.239000"
  },
  {
    "code": "AGC",
    "name": "AGRA CANTT JN.",
    "name_other": "AGRA CANTT JN.",
    "lat": "27.157722",
    "long": "77.989883"
  },
  {
    "code": "AGCI",
    "name": "ANGADI",
    "name_other": "ANGADI",
    "lat": "22.807100",
    "long": "73.282900"
  },
  {
    "code": "AGD",
    "name": "AGASOD",
    "name_other": "AGASOD",
    "lat": "24.234403",
    "long": "78.217292"
  },
  {
    "code": "AGE",
    "name": "ANGAI",
    "name_other": "ANGAI",
    "lat": "26.606333",
    "long": "77.466660"
  },
  {
    "code": "AGI",
    "name": "AMGURI",
    "name_other": "AMGURI",
    "lat": "26.812811",
    "long": "94.524221"
  },
  {
    "code": "AGM",
    "name": "AGARAM SIBBANDI",
    "name_other": "AGARAM SIBBANDI",
    "lat": "12.414400",
    "long": "79.113400"
  },
  {
    "code": "AGMN",
    "name": "AGOMONI",
    "name_other": "AGOMONI",
    "lat": "26.211514",
    "long": "89.782123"
  },
  {
    "code": "AGN",
    "name": "AMGAON",
    "name_other": "AMGAON",
    "lat": "21.361200",
    "long": "80.374700"
  },
  {
    "code": "AGP",
    "name": "AGARPARA",
    "name_other": "AGARPARA",
    "lat": "22.682900",
    "long": "88.385100"
  },
  {
    "code": "AGQ",
    "name": "ASIRGARH ROAD",
    "name_other": "ASIRGARH ROAD",
    "lat": "21.377900",
    "long": "76.267600"
  },
  {
    "code": "AGR",
    "name": "AMARGARH",
    "name_other": "AMARGARH",
    "lat": "23.080600",
    "long": "74.747000"
  },
  {
    "code": "AGT",
    "name": "AGTHORI",
    "name_other": "AGTHORI",
    "lat": "26.201200",
    "long": "91.686300"
  },
  {
    "code": "AGTL",
    "name": "AGARTALA",
    "name_other": "AGARTALA",
    "lat": "23.792727",
    "long": "91.278791"
  },
  {
    "code": "AGTR",
    "name": "AGTHORI",
    "name_other": "AGTHORI",
    "lat": "26.007733",
    "long": "84.843979"
  },
  {
    "code": "AGV",
    "name": "ANGUA",
    "name_other": "ANGUA",
    "lat": "21.892642",
    "long": "87.269983"
  },
  {
    "code": "AGX",
    "name": "AGASTIYAMPALLI",
    "name_other": "AGASTIYAMPALLI",
    "lat": "10.355956",
    "long": "79.850693"
  },
  {
    "code": "AGY",
    "name": "AGORI KHAS",
    "name_other": "AGORI KHAS",
    "lat": "24.598600",
    "long": "83.055800"
  },
  {
    "code": "AGZ",
    "name": "AMAGURA",
    "name_other": "AMAGURA",
    "lat": "19.068200",
    "long": "82.147500"
  },
  {
    "code": "AH",
    "name": "ACHHNERA JN",
    "name_other": "ACHHNERA JN",
    "lat": "27.181700",
    "long": "77.757700"
  },
  {
    "code": "AHA",
    "name": "ABHAIPUR",
    "name_other": "ABHAIPUR",
    "lat": "25.228200",
    "long": "86.344200"
  },
  {
    "code": "AHH",
    "name": "AHMADGARH",
    "name_other": "AHMADGARH",
    "lat": "30.683300",
    "long": "75.829200"
  },
  {
    "code": "AHJU",
    "name": "AHJU",
    "name_other": "AHJU",
    "lat": "32.028380",
    "long": "76.690106"
  },
  {
    "code": "AHL",
    "name": "AJHARAIL",
    "name_other": "AJHARAIL",
    "lat": "25.781498",
    "long": "87.848182"
  },
  {
    "code": "AHLR",
    "name": "AHALYAPUR",
    "name_other": "AHALYAPUR",
    "lat": "26.468100",
    "long": "83.824600"
  },
  {
    "code": "AHM",
    "name": "AHIMANPUR",
    "name_other": "AHIMANPUR",
    "lat": "25.252300",
    "long": "82.511400"
  },
  {
    "code": "AHMP",
    "name": "ADARSH MANPUR",
    "name_other": "ADARSH MANPUR",
    "lat": "25.133742",
    "long": "85.920689"
  },
  {
    "code": "AHN",
    "name": "AHIRAN",
    "name_other": "AHIRAN",
    "lat": "24.518077",
    "long": "88.041515"
  },
  {
    "code": "AHO",
    "name": "ADARSHNAGAR",
    "name_other": "ADARSHNAGAR",
    "lat": "26.421700",
    "long": "74.650200"
  },
  {
    "code": "AHQ",
    "name": "AHERA HALT",
    "name_other": "AHERA HALT",
    "lat": "28.926100",
    "long": "77.278300"
  },
  {
    "code": "AHU",
    "name": "AHIRAULI",
    "name_other": "AHIRAULI",
    "lat": "27.306960",
    "long": "83.034325"
  },
  {
    "code": "AHZ",
    "name": "ADHINPUR",
    "name_other": "ADHINPUR",
    "lat": "26.418200",
    "long": "81.726600"
  },
  {
    "code": "AI",
    "name": "ADIPUR",
    "name_other": "ADIPUR",
    "lat": "23.076713",
    "long": "70.078319"
  },
  {
    "code": "AIA",
    "name": "AJARAKA",
    "name_other": "AJARAKA",
    "lat": "27.959761",
    "long": "76.564579"
  },
  {
    "code": "AIG",
    "name": "ALGAWAN",
    "name_other": "ALGAWAN",
    "lat": "27.701000",
    "long": "79.963600"
  },
  {
    "code": "AIH",
    "name": "ALAWALPUR I PUR",
    "name_other": "ALAWALPUR I PUR",
    "lat": "29.047100",
    "long": "77.270900"
  },
  {
    "code": "AII",
    "name": "AJMER JN",
    "name_other": "AJMER JN",
    "lat": "26.456742",
    "long": "74.637594"
  },
  {
    "code": "AILM",
    "name": "AILAM",
    "name_other": "AILAM",
    "lat": "29.288000",
    "long": "77.292400"
  },
  {
    "code": "AIP",
    "name": "ATTIPPATTU",
    "name_other": "ATTIPPATTU",
    "lat": "13.249100",
    "long": "80.299400"
  },
  {
    "code": "AIPP",
    "name": "ATTIPATTU PUDU NAGAR.H",
    "name_other": "ATTIPATTU PUDU NAGAR.H",
    "lat": "13.249052",
    "long": "80.300015"
  },
  {
    "code": "AIR",
    "name": "ALINDRA ROAD",
    "name_other": "ALINDRA ROAD",
    "lat": "22.440300",
    "long": "73.239500"
  },
  {
    "code": "AIT",
    "name": "AIT",
    "name_other": "AIT",
    "lat": "25.903500",
    "long": "79.230200"
  },
  {
    "code": "AJ",
    "name": "AJGAIN",
    "name_other": "AJGAIN",
    "lat": "26.617400",
    "long": "80.621200"
  },
  {
    "code": "AJE",
    "name": "ANJAR",
    "name_other": "ANJAR",
    "lat": "23.119312",
    "long": "70.036451"
  },
  {
    "code": "AJH",
    "name": "AJHAI",
    "name_other": "AJHAI",
    "lat": "27.635710",
    "long": "77.557983"
  },
  {
    "code": "AJI",
    "name": "ANJHI SHAHABAD",
    "name_other": "ANJHI SHAHABAD",
    "lat": "27.644400",
    "long": "79.973700"
  },
  {
    "code": "AJIT",
    "name": "AJIT",
    "name_other": "AJIT",
    "lat": "25.859687",
    "long": "72.677565"
  },
  {
    "code": "AJJ",
    "name": "ARAKKONAM JN.",
    "name_other": "ARAKKONAM JN.",
    "lat": "13.081652",
    "long": "79.668131"
  },
  {
    "code": "AJJN",
    "name": "ARAKKONAM NORTH JN.",
    "name_other": "ARAKKONAM NORTH JN.",
    "lat": "13.086835",
    "long": "79.648819"
  },
  {
    "code": "AJK",
    "name": "AJAKOLLU",
    "name_other": "AJAKOLLU",
    "lat": "16.329530",
    "long": "77.870407"
  },
  {
    "code": "AJKI",
    "name": "AJITKHERI",
    "name_other": "AJITKHERI",
    "lat": "23.095500",
    "long": "76.058300"
  },
  {
    "code": "AJL",
    "name": "AJITWAL",
    "name_other": "AJITWAL",
    "lat": "30.807900",
    "long": "75.340100"
  },
  {
    "code": "AJLE",
    "name": "AZIMGANJ JN. CABIN",
    "name_other": "AZIMGANJ JN. CABIN",
    "lat": "24.238630",
    "long": "88.257723"
  },
  {
    "code": "AJM",
    "name": "ADRAJ MOTI",
    "name_other": "ADRAJ MOTI",
    "lat": "23.258300",
    "long": "72.565100"
  },
  {
    "code": "AJN",
    "name": "AJNOD",
    "name_other": "AJNOD",
    "lat": "22.930900",
    "long": "75.738500"
  },
  {
    "code": "AJNI",
    "name": "AJNI",
    "name_other": "AJNI",
    "lat": "21.115810",
    "long": "79.078646"
  },
  {
    "code": "AJP",
    "name": "AJJAMPUR",
    "name_other": "AJJAMPUR",
    "lat": "13.728400",
    "long": "76.009800"
  },
  {
    "code": "AJR",
    "name": "AJAIBPUR",
    "name_other": "AJAIBPUR",
    "lat": "28.483300",
    "long": "77.583300"
  },
  {
    "code": "AJRE",
    "name": "AUJARI",
    "name_other": "AUJARI",
    "lat": "26.142186",
    "long": "92.264557"
  },
  {
    "code": "AJTM",
    "name": "AJITGILL MATTA",
    "name_other": "AJITGILL MATTA",
    "lat": "30.483300",
    "long": "74.863700"
  },
  {
    "code": "AJU",
    "name": "ARJUNI",
    "name_other": "ARJUNI",
    "lat": "20.816700",
    "long": "80.021400"
  },
  {
    "code": "AJUG",
    "name": "ABJUGANJ",
    "name_other": "ABJUGANJ",
    "lat": "25.243454",
    "long": "86.756866"
  },
  {
    "code": "AK",
    "name": "AKOLA JN.",
    "name_other": "AKOLA JN.",
    "lat": "20.723164",
    "long": "77.005577"
  },
  {
    "code": "AKAT",
    "name": "AKKAMPET",
    "name_other": "AKKAMPET",
    "lat": "13.670100",
    "long": "80.016000"
  },
  {
    "code": "AKD",
    "name": "AKODIA",
    "name_other": "AKODIA",
    "lat": "23.378200",
    "long": "76.599200"
  },
  {
    "code": "AKE",
    "name": "AKANAPET",
    "name_other": "AKANAPET",
    "lat": "18.111100",
    "long": "78.396500"
  },
  {
    "code": "AKI",
    "name": "ADARKI",
    "name_other": "ADARKI",
    "lat": "17.917900",
    "long": "74.189300"
  },
  {
    "code": "AKIP",
    "name": "AKAIPUR HALT",
    "name_other": "AKAIPUR HALT",
    "lat": "23.094418",
    "long": "88.717861"
  },
  {
    "code": "AKJ",
    "name": "AKBARGANJ",
    "name_other": "AKBARGANJ",
    "lat": "26.531900",
    "long": "81.502100"
  },
  {
    "code": "AKK",
    "name": "AKKIHEBBAIU",
    "name_other": "AKKIHEBBAIU",
    "lat": "12.624760",
    "long": "76.377468"
  },
  {
    "code": "AKLA",
    "name": "AKLERA",
    "name_other": "AKLERA",
    "lat": "24.420000",
    "long": "76.570000"
  },
  {
    "code": "AKM",
    "name": "ARAMBAKKAM",
    "name_other": "ARAMBAKKAM",
    "lat": "13.533000",
    "long": "80.074700"
  },
  {
    "code": "AKN",
    "name": "AKBARNAGAR",
    "name_other": "AKBARNAGAR",
    "lat": "25.232100",
    "long": "86.831900"
  },
  {
    "code": "AKNR",
    "name": "ADHYATMIK NAGAR",
    "name_other": "ADHYATMIK NAGAR",
    "lat": "28.679594",
    "long": "77.499447"
  },
  {
    "code": "AKOR",
    "name": "AKALKOT ROAD",
    "name_other": "AKALKOT ROAD",
    "lat": "17.450600",
    "long": "76.138100"
  },
  {
    "code": "AKOT",
    "name": "AKOT",
    "name_other": "AKOT",
    "lat": "21.095391",
    "long": "77.046947"
  },
  {
    "code": "AKP",
    "name": "ANAKAPALLE",
    "name_other": "ANAKAPALLE",
    "lat": "17.695000",
    "long": "83.008300"
  },
  {
    "code": "AKR",
    "name": "AKOLNER",
    "name_other": "AKOLNER",
    "lat": "18.985500",
    "long": "74.669100"
  },
  {
    "code": "AKRA",
    "name": "AKRA",
    "name_other": "AKRA",
    "lat": "22.514600",
    "long": "88.249000"
  },
  {
    "code": "AKRD",
    "name": "AKURDI",
    "name_other": "AKURDI",
    "lat": "18.648400",
    "long": "73.764500"
  },
  {
    "code": "AKS",
    "name": "ANKUSPUR",
    "name_other": "ANKUSPUR",
    "lat": "25.567500",
    "long": "83.480900"
  },
  {
    "code": "AKT",
    "name": "AKALTARA",
    "name_other": "AKALTARA",
    "lat": "22.029081",
    "long": "82.422009"
  },
  {
    "code": "AKV",
    "name": "ANKLESHWAR JN",
    "name_other": "ANKLESHWAR JN",
    "lat": "21.624300",
    "long": "73.001100"
  },
  {
    "code": "AKVD",
    "name": "AKIVIDU",
    "name_other": "AKIVIDU",
    "lat": "16.582800",
    "long": "81.369200"
  },
  {
    "code": "AKW",
    "name": "AKONA",
    "name_other": "AKONA",
    "lat": "25.613977",
    "long": "80.140285"
  },
  {
    "code": "AKY",
    "name": "AKKURTI",
    "name_other": "AKKURTI",
    "lat": "13.782900",
    "long": "79.668500"
  },
  {
    "code": "AKZ",
    "name": "AKASHI",
    "name_other": "AKASHI",
    "lat": "23.406700",
    "long": "84.825600"
  },
  {
    "code": "AL",
    "name": "ATTILI",
    "name_other": "ATTILI",
    "lat": "16.680000",
    "long": "81.616200"
  },
  {
    "code": "ALAI",
    "name": "ALAI",
    "name_other": "ALAI",
    "lat": "27.337567",
    "long": "73.586238"
  },
  {
    "code": "ALAL",
    "name": "ALAL",
    "name_other": "ALAL",
    "lat": "30.377800",
    "long": "75.723800"
  },
  {
    "code": "ALAT",
    "name": "AVULADATLA",
    "name_other": "AVULADATLA",
    "lat": "14.689669",
    "long": "76.974072"
  },
  {
    "code": "ALAU",
    "name": "ALAU",
    "name_other": "ALAU",
    "lat": "22.214424",
    "long": "71.699696"
  },
  {
    "code": "ALB",
    "name": "ALIA BADA",
    "name_other": "ALIA BADA",
    "lat": "22.446800",
    "long": "70.210400"
  },
  {
    "code": "ALER",
    "name": "ALER",
    "name_other": "ALER",
    "lat": "17.645400",
    "long": "79.047800"
  },
  {
    "code": "ALGP",
    "name": "ALGAPUR",
    "name_other": "ALGAPUR",
    "lat": "24.754300",
    "long": "92.595500"
  },
  {
    "code": "ALJ",
    "name": "ALIGANJ",
    "name_other": "ALIGANJ",
    "lat": "",
    "long": ""
  },
  {
    "code": "ALJN",
    "name": "ALIGARH JN",
    "name_other": "ALIGARH JN",
    "lat": "27.889100",
    "long": "78.074100"
  },
  {
    "code": "ALK",
    "name": "ALAKKUDI",
    "name_other": "ALAKKUDI",
    "lat": "10.777400",
    "long": "79.053500"
  },
  {
    "code": "ALLP",
    "name": "ALAPPUZHA",
    "name_other": "ALAPPUZHA",
    "lat": "9.483500",
    "long": "76.322200"
  },
  {
    "code": "ALM",
    "name": "ALAMANDA",
    "name_other": "ALAMANDA",
    "lat": "18.012000",
    "long": "83.271100"
  },
  {
    "code": "ALMG",
    "name": "ALAMGANJ",
    "name_other": "ALAMGANJ",
    "lat": "",
    "long": ""
  },
  {
    "code": "ALMR",
    "name": "ALAMPUR",
    "name_other": "ALAMPUR",
    "lat": "21.943523",
    "long": "71.698666"
  },
  {
    "code": "ALMW",
    "name": "ALMAW",
    "name_other": "ALMAW",
    "lat": "25.259400",
    "long": "82.489400"
  },
  {
    "code": "ALN",
    "name": "ALANDI",
    "name_other": "ALANDI",
    "lat": "18.450789",
    "long": "74.092655"
  },
  {
    "code": "ALNI",
    "name": "ALNIYA",
    "name_other": "ALNIYA",
    "lat": "24.968300",
    "long": "75.942100"
  },
  {
    "code": "ALNP",
    "name": "AKELAHANSPUR(HALT)",
    "name_other": "AKELAHANSPUR(HALT)",
    "lat": "28.340950",
    "long": "80.315981"
  },
  {
    "code": "ALP",
    "name": "ALAPAKKAM",
    "name_other": "ALAPAKKAM",
    "lat": "11.543271",
    "long": "79.725208"
  },
  {
    "code": "ALPD",
    "name": "ADALPAHARI",
    "name_other": "ADALPAHARI",
    "lat": "",
    "long": ""
  },
  {
    "code": "ALPR",
    "name": "ALAMPUR ROAD",
    "name_other": "ALAMPUR ROAD",
    "lat": "15.895177",
    "long": "78.046532"
  },
  {
    "code": "ALS",
    "name": "AMLORI SARSAR",
    "name_other": "AMLORI SARSAR",
    "lat": "26.272000",
    "long": "84.347300"
  },
  {
    "code": "ALU",
    "name": "ARIYALUR",
    "name_other": "ARIYALUR",
    "lat": "11.150200",
    "long": "79.068500"
  },
  {
    "code": "ALUH",
    "name": "ALAULI",
    "name_other": "ALAULI",
    "lat": "0.000000",
    "long": "0.000000"
  },
  {
    "code": "ALUR",
    "name": "ALUR HALT",
    "name_other": "ALUR HALT",
    "lat": "12.982500",
    "long": "75.990500"
  },
  {
    "code": "ALW",
    "name": "ALWAL",
    "name_other": "ALWAL",
    "lat": "17.505289",
    "long": "78.514516"
  },
  {
    "code": "AMA",
    "name": "ATAMANDA",
    "name_other": "ATAMANDA",
    "lat": "28.586170",
    "long": "79.468253"
  },
  {
    "code": "AMB",
    "name": "AMBODALA",
    "name_other": "AMBODALA",
    "lat": "19.836400",
    "long": "83.456100"
  },
  {
    "code": "AMBG",
    "name": "ARAMBAG",
    "name_other": "ARAMBAG",
    "lat": "22.888110",
    "long": "87.791748"
  },
  {
    "code": "AMBR",
    "name": "AMBIKA ROHINA",
    "name_other": "AMBIKA ROHINA",
    "lat": "18.439390",
    "long": "76.947899"
  },
  {
    "code": "AMC",
    "name": "AMRITAPURA",
    "name_other": "AMRITAPURA",
    "lat": "14.139900",
    "long": "76.248800"
  },
  {
    "code": "AMD",
    "name": "AMILA",
    "name_other": "AMILA",
    "lat": "26.191026",
    "long": "83.522358"
  },
  {
    "code": "AMDI",
    "name": "AMDI P.H.",
    "name_other": "AMDI P.H.",
    "lat": "21.352540",
    "long": "79.318886"
  },
  {
    "code": "AME",
    "name": "AMETHI",
    "name_other": "AMETHI",
    "lat": "26.152600",
    "long": "81.805900"
  },
  {
    "code": "AMG",
    "name": "ALAMNAGAR",
    "name_other": "ALAMNAGAR",
    "lat": "26.847400",
    "long": "80.860600"
  },
  {
    "code": "AMGA",
    "name": "AMJONGA",
    "name_other": "AMJONGA",
    "lat": "25.981425",
    "long": "90.845690"
  },
  {
    "code": "AMGU",
    "name": "AMMUGUDA",
    "name_other": "AMMUGUDA",
    "lat": "",
    "long": ""
  },
  {
    "code": "AMH",
    "name": "AZAMGARH",
    "name_other": "AZAMGARH",
    "lat": "26.039000",
    "long": "83.161000"
  },
  {
    "code": "AMI",
    "name": "AMRAVATI",
    "name_other": "AMRAVATI",
    "lat": "20.929800",
    "long": "77.757500"
  },
  {
    "code": "AMIN",
    "name": "AMIN",
    "name_other": "AMIN",
    "lat": "29.904600",
    "long": "76.899700"
  },
  {
    "code": "AML",
    "name": "AMALSAD",
    "name_other": "AMALSAD",
    "lat": "20.811300",
    "long": "72.956000"
  },
  {
    "code": "AMLA",
    "name": "AMLA JN",
    "name_other": "AMLA JN",
    "lat": "21.919800",
    "long": "78.123300"
  },
  {
    "code": "AMLI",
    "name": "AMLI",
    "name_other": "AMLI",
    "lat": "25.828000",
    "long": "76.286000"
  },
  {
    "code": "AMLO",
    "name": "AMLO",
    "name_other": "AMLO",
    "lat": "23.768693",
    "long": "85.980034"
  },
  {
    "code": "AMLP",
    "name": "AMALPUR",
    "name_other": "AMALPUR",
    "lat": "22.161400",
    "long": "73.508600"
  },
  {
    "code": "AMM",
    "name": "ADIRAMPATINAM",
    "name_other": "ADIRAMPATINAM",
    "lat": "10.331470",
    "long": "79.384632"
  },
  {
    "code": "AMNE",
    "name": "AMALNER B",
    "name_other": "AMALNER B",
    "lat": "",
    "long": ""
  },
  {
    "code": "AMNR",
    "name": "AMMANUR",
    "name_other": "AMMANUR",
    "lat": "10.591200",
    "long": "79.640900"
  },
  {
    "code": "AMO",
    "name": "AMOLWA",
    "name_other": "AMOLWA",
    "lat": "27.210671",
    "long": "84.477997"
  },
  {
    "code": "AMP",
    "name": "AHAMADPUR JN.",
    "name_other": "AHAMADPUR JN.",
    "lat": "23.832900",
    "long": "87.693500"
  },
  {
    "code": "AMPA",
    "name": "AMBALAPPUZHA",
    "name_other": "AMBALAPPUZHA",
    "lat": "9.386149",
    "long": "76.363907"
  },
  {
    "code": "AMPL",
    "name": "AMMAPALLI HALT",
    "name_other": "AMMAPALLI HALT",
    "lat": "25.264103",
    "long": "87.471428"
  },
  {
    "code": "AMPR",
    "name": "AMARPURA RATHAN",
    "name_other": "AMARPURA RATHAN",
    "lat": "29.483539",
    "long": "74.079093"
  },
  {
    "code": "AMQ",
    "name": "AMMUGUDA",
    "name_other": "AMMUGUDA",
    "lat": "17.486829",
    "long": "78.527005"
  },
  {
    "code": "AMRA",
    "name": "AMHA PIPRA",
    "name_other": "AMHA PIPRA",
    "lat": "0.000000",
    "long": "0.000000"
  },
  {
    "code": "AMRI",
    "name": "ANAJ MANDI",
    "name_other": "ANAJ MANDI",
    "lat": "28.187865",
    "long": "76.605679"
  },
  {
    "code": "AMRO",
    "name": "AMROHA",
    "name_other": "AMROHA",
    "lat": "28.892300",
    "long": "78.473900"
  },
  {
    "code": "AMS",
    "name": "AMAUSI",
    "name_other": "AMAUSI",
    "lat": "26.774500",
    "long": "80.841600"
  },
  {
    "code": "AMSA",
    "name": "AMMASANDRA",
    "name_other": "AMMASANDRA",
    "lat": "13.264821",
    "long": "76.711736"
  },
  {
    "code": "AMT",
    "name": "AMMAPET",
    "name_other": "AMMAPET",
    "lat": "10.779306",
    "long": "79.315538"
  },
  {
    "code": "AMTA",
    "name": "AMTA",
    "name_other": "AMTA",
    "lat": "",
    "long": ""
  },
  {
    "code": "AMVA",
    "name": "AMARAVILA HALT",
    "name_other": "AMARAVILA HALT",
    "lat": "8.396809",
    "long": "77.100062"
  },
  {
    "code": "AMW",
    "name": "AMAN VADI",
    "name_other": "AMAN VADI",
    "lat": "20.300197",
    "long": "77.064971"
  },
  {
    "code": "AMY",
    "name": "AKATHUMURI",
    "name_other": "AKATHUMURI",
    "lat": "8.700160",
    "long": "76.758642"
  },
  {
    "code": "AMZ",
    "name": "AMTA",
    "name_other": "AMTA",
    "lat": "22.574389",
    "long": "88.019543"
  },
  {
    "code": "AN",
    "name": "AMALNER",
    "name_other": "AMALNER",
    "lat": "21.049200",
    "long": "75.057500"
  },
  {
    "code": "ANA",
    "name": "ASLANA",
    "name_other": "ASLANA",
    "lat": "23.860100",
    "long": "79.319100"
  },
  {
    "code": "ANAH",
    "name": "AUNTA HALT",
    "name_other": "AUNTA HALT",
    "lat": "25.376911",
    "long": "85.962696"
  },
  {
    "code": "ANAS",
    "name": "ANAS",
    "name_other": "ANAS",
    "lat": "22.865500",
    "long": "74.421000"
  },
  {
    "code": "ANB",
    "name": "AMMANABROLU",
    "name_other": "AMMANABROLU",
    "lat": "15.596832",
    "long": "80.148783"
  },
  {
    "code": "ANC",
    "name": "ANNECHAKANAHALI",
    "name_other": "ANNECHAKANAHALI",
    "lat": "12.738140",
    "long": "76.283054"
  },
  {
    "code": "ANCR",
    "name": "ANCHURI",
    "name_other": "ANCHURI",
    "lat": "23.284124",
    "long": "86.993394"
  },
  {
    "code": "AND",
    "name": "ANDAMPALIAM",
    "name_other": "ANDAMPALIAM",
    "lat": "12.088100",
    "long": "79.168700"
  },
  {
    "code": "ANDI",
    "name": "ADARSH NAGAR DELHI",
    "name_other": "ADARSH NAGAR DELHI",
    "lat": "28.714265",
    "long": "77.166767"
  },
  {
    "code": "ANDN",
    "name": "ANAND NAGAR",
    "name_other": "ANAND NAGAR",
    "lat": "27.103300",
    "long": "83.270300"
  },
  {
    "code": "ANE",
    "name": "ANANTARAJUPET",
    "name_other": "ANANTARAJUPET",
    "lat": "13.999700",
    "long": "79.302500"
  },
  {
    "code": "ANF",
    "name": "ANANDAPURAM",
    "name_other": "ANANDAPURAM",
    "lat": "14.073600",
    "long": "75.209400"
  },
  {
    "code": "ANG",
    "name": "AHMADNAGAR",
    "name_other": "AHMADNAGAR",
    "lat": "19.075100",
    "long": "74.721600"
  },
  {
    "code": "ANGL",
    "name": "ANGUL",
    "name_other": "ANGUL",
    "lat": "20.859935",
    "long": "85.100484"
  },
  {
    "code": "ANGM",
    "name": "AUNGRIDHAN",
    "name_other": "AUNGRIDHAN",
    "lat": "25.191284",
    "long": "85.226261"
  },
  {
    "code": "ANGR",
    "name": "ANGADGERI HALT",
    "name_other": "ANGADGERI HALT",
    "lat": "16.451644",
    "long": "75.845661"
  },
  {
    "code": "ANH",
    "name": "ANKORAH AKORHA",
    "name_other": "ANKORAH AKORHA",
    "lat": "24.761400",
    "long": "84.169700"
  },
  {
    "code": "ANI",
    "name": "AJANTI",
    "name_other": "AJANTI",
    "lat": "21.894314",
    "long": "76.286316"
  },
  {
    "code": "ANK",
    "name": "ANKAI",
    "name_other": "ANKAI",
    "lat": "20.180932",
    "long": "74.457350"
  },
  {
    "code": "ANKL",
    "name": "ANKOLA",
    "name_other": "ANKOLA",
    "lat": "14.644800",
    "long": "74.332400"
  },
  {
    "code": "ANLG",
    "name": "AMAN LODGE",
    "name_other": "AMAN LODGE",
    "lat": "",
    "long": ""
  },
  {
    "code": "ANM",
    "name": "ANAIMALAI ROAD",
    "name_other": "ANAIMALAI ROAD",
    "lat": "10.624504",
    "long": "76.934681"
  },
  {
    "code": "ANMD",
    "name": "ARANG MAHANADI",
    "name_other": "ARANG MAHANADI",
    "lat": "21.189500",
    "long": "81.955400"
  },
  {
    "code": "ANMP",
    "name": "ARJUN NAGAR",
    "name_other": "ARJUN NAGAR",
    "lat": "",
    "long": ""
  },
  {
    "code": "ANND",
    "name": "ANAND JN",
    "name_other": "ANAND JN",
    "lat": "22.561700",
    "long": "72.966200"
  },
  {
    "code": "ANNR",
    "name": "ANNANUR",
    "name_other": "ANNANUR",
    "lat": "13.116428",
    "long": "80.127153"
  },
  {
    "code": "ANO",
    "name": "ANJANI",
    "name_other": "ANJANI",
    "lat": "17.620955",
    "long": "73.399658"
  },
  {
    "code": "ANP",
    "name": "ANANDATANDAVAPURAM",
    "name_other": "ANANDATANDAVAPURAM",
    "lat": "11.145561",
    "long": "79.659119"
  },
  {
    "code": "ANPR",
    "name": "ANPARA",
    "name_other": "ANPARA",
    "lat": "24.217000",
    "long": "82.765800"
  },
  {
    "code": "ANQ",
    "name": "AMNAPUR",
    "name_other": "AMNAPUR",
    "lat": "17.049235",
    "long": "74.459324"
  },
  {
    "code": "ANR",
    "name": "ANARA",
    "name_other": "ANARA",
    "lat": "23.480882",
    "long": "86.559563"
  },
  {
    "code": "ANSB",
    "name": "ANANDPUR SAHIB",
    "name_other": "ANANDPUR SAHIB",
    "lat": "31.230000",
    "long": "76.500100"
  },
  {
    "code": "ANT",
    "name": "ANANTNAG",
    "name_other": "ANANTNAG",
    "lat": "",
    "long": ""
  },
  {
    "code": "ANTU",
    "name": "ANTU",
    "name_other": "ANTU",
    "lat": "26.063200",
    "long": "81.890800"
  },
  {
    "code": "ANU",
    "name": "ANANGUR",
    "name_other": "ANANGUR",
    "lat": "11.396700",
    "long": "77.819800"
  },
  {
    "code": "ANV",
    "name": "ANNAVARAM",
    "name_other": "ANNAVARAM",
    "lat": "17.269400",
    "long": "82.419400"
  },
  {
    "code": "ANVR",
    "name": "ANAND VIHAR",
    "name_other": "ANAND VIHAR",
    "lat": "28.649084",
    "long": "77.314494"
  },
  {
    "code": "ANVT",
    "name": "ANAND VIHAR TERMINAL",
    "name_other": "ANAND VIHAR TERMINAL",
    "lat": "28.643218",
    "long": "77.307444"
  },
  {
    "code": "ANW",
    "name": "ANAWAL",
    "name_other": "ANAWAL",
    "lat": "20.842930",
    "long": "73.264389"
  },
  {
    "code": "ANY",
    "name": "ARUMUGANERI",
    "name_other": "ARUMUGANERI",
    "lat": "8.579300",
    "long": "78.092000"
  },
  {
    "code": "AO",
    "name": "AONLA",
    "name_other": "AONLA",
    "lat": "28.295841",
    "long": "79.168940"
  },
  {
    "code": "AON",
    "name": "ARAON",
    "name_other": "ARAON",
    "lat": "27.115900",
    "long": "78.696600"
  },
  {
    "code": "AONI",
    "name": "AMONI",
    "name_other": "AMONI",
    "lat": "26.445244",
    "long": "92.914127"
  },
  {
    "code": "AOR",
    "name": "ARGORA",
    "name_other": "ARGORA",
    "lat": "23.346600",
    "long": "85.313900"
  },
  {
    "code": "AP",
    "name": "ASHOKAPURAM",
    "name_other": "ASHOKAPURAM",
    "lat": "12.273900",
    "long": "76.635400"
  },
  {
    "code": "APA",
    "name": "AMARPURA",
    "name_other": "AMARPURA",
    "lat": "26.111053",
    "long": "74.249382"
  },
  {
    "code": "APB",
    "name": "ANUPPAMBATTU",
    "name_other": "ANUPPAMBATTU",
    "lat": "13.304100",
    "long": "80.230500"
  },
  {
    "code": "APD",
    "name": "ALIPUR DUAR",
    "name_other": "ALIPUR DUAR",
    "lat": "26.479447",
    "long": "89.520807"
  },
  {
    "code": "APDC",
    "name": "ALIPUR DUAR CRT",
    "name_other": "ALIPUR DUAR CRT",
    "lat": "26.499305",
    "long": "89.526858"
  },
  {
    "code": "APDJ",
    "name": "ALIPUR DUAR JN",
    "name_other": "ALIPUR DUAR JN",
    "lat": "26.522999",
    "long": "89.533768"
  },
  {
    "code": "APE",
    "name": "ANDANAPPETTAI",
    "name_other": "ANDANAPPETTAI",
    "lat": "10.759133",
    "long": "79.844406"
  },
  {
    "code": "APG",
    "name": "ANUPGANJ",
    "name_other": "ANUPGANJ",
    "lat": "26.756900",
    "long": "81.125700"
  },
  {
    "code": "APH",
    "name": "ANUPGARH",
    "name_other": "ANUPGARH",
    "lat": "29.196800",
    "long": "73.204500"
  },
  {
    "code": "API",
    "name": "AKKARAIPPATTI",
    "name_other": "AKKARAIPPATTI",
    "lat": "9.259500",
    "long": "77.563600"
  },
  {
    "code": "APJ",
    "name": "AMARPUR JORASI",
    "name_other": "AMARPUR JORASI",
    "lat": "28.021500",
    "long": "76.075800"
  },
  {
    "code": "APK",
    "name": "ARUPPUKKOTTAI",
    "name_other": "ARUPPUKKOTTAI",
    "lat": "9.524700",
    "long": "78.102000"
  },
  {
    "code": "APKH",
    "name": "ASANPUR KUPHA HALT",
    "name_other": "ASANPUR KUPHA HALT",
    "lat": "26.296796",
    "long": "86.632570"
  },
  {
    "code": "APL",
    "name": "APPIKATLA",
    "name_other": "APPIKATLA",
    "lat": "15.970200",
    "long": "80.514300"
  },
  {
    "code": "APMR",
    "name": "APPAIPALLI",
    "name_other": "APPAIPALLI",
    "lat": "1.000000",
    "long": "1.000000"
  },
  {
    "code": "APN",
    "name": "AYODHYAPATTANAM",
    "name_other": "AYODHYAPATTANAM",
    "lat": "11.671822",
    "long": "78.234072"
  },
  {
    "code": "APP",
    "name": "AMBAPENDARPUR HALT",
    "name_other": "AMBAPENDARPUR HALT",
    "lat": "25.310977",
    "long": "85.531311"
  },
  {
    "code": "APR",
    "name": "ANUPPUR JN",
    "name_other": "ANUPPUR JN",
    "lat": "23.117312",
    "long": "81.695967"
  },
  {
    "code": "APRD",
    "name": "ASHAPURNA DEVI",
    "name_other": "ASHAPURNA DEVI",
    "lat": "21.727371",
    "long": "87.638171"
  },
  {
    "code": "APRH",
    "name": "ALEHPUR HALT",
    "name_other": "ALEHPUR HALT",
    "lat": "26.208954",
    "long": "84.789129"
  },
  {
    "code": "APT",
    "name": "ANAPARTI",
    "name_other": "ANAPARTI",
    "lat": "16.935837",
    "long": "81.953201"
  },
  {
    "code": "APTA",
    "name": "APTA",
    "name_other": "APTA",
    "lat": "18.863600",
    "long": "73.152800"
  },
  {
    "code": "APU",
    "name": "ANIPUR",
    "name_other": "ANIPUR",
    "lat": "24.545700",
    "long": "92.434500"
  },
  {
    "code": "AQG",
    "name": "ASHAPURA GOMAT",
    "name_other": "ASHAPURA GOMAT",
    "lat": "26.950382",
    "long": "71.892815"
  },
  {
    "code": "ARA",
    "name": "ARA",
    "name_other": "ARA",
    "lat": "25.548800",
    "long": "84.662500"
  },
  {
    "code": "ARAG",
    "name": "ARAG",
    "name_other": "ARAG",
    "lat": "16.823438",
    "long": "74.790974"
  },
  {
    "code": "ARCL",
    "name": "ARUNACHAL",
    "name_other": "ARUNACHAL",
    "lat": "24.855833",
    "long": "92.743235"
  },
  {
    "code": "ARD",
    "name": "AMARDA ROAD",
    "name_other": "AMARDA ROAD",
    "lat": "21.734000",
    "long": "87.102100"
  },
  {
    "code": "ARE",
    "name": "ARNETHA",
    "name_other": "ARNETHA",
    "lat": "25.373400",
    "long": "75.998200"
  },
  {
    "code": "ARG",
    "name": "ANGAR GHAT",
    "name_other": "ANGAR GHAT",
    "lat": "25.794900",
    "long": "85.906700"
  },
  {
    "code": "ARGD",
    "name": "ARIGADA",
    "name_other": "ARIGADA",
    "lat": "23.643500",
    "long": "85.466500"
  },
  {
    "code": "ARGL",
    "name": "ARGUL",
    "name_other": "ARGUL",
    "lat": "20.124247",
    "long": "85.670700"
  },
  {
    "code": "ARGP",
    "name": "ARALAGUPPE",
    "name_other": "ARALAGUPPE",
    "lat": "13.253062",
    "long": "76.615369"
  },
  {
    "code": "ARH",
    "name": "AMHERA",
    "name_other": "AMHERA",
    "lat": "29.262400",
    "long": "78.286000"
  },
  {
    "code": "ARI",
    "name": "ANTRI",
    "name_other": "ANTRI",
    "lat": "26.082700",
    "long": "78.203300"
  },
  {
    "code": "ARJ",
    "name": "AUNRIHAR JN.",
    "name_other": "AUNRIHAR JN.",
    "lat": "25.544920",
    "long": "83.187532"
  },
  {
    "code": "ARK",
    "name": "ARAKU",
    "name_other": "ARAKU",
    "lat": "18.333751",
    "long": "82.862320"
  },
  {
    "code": "ARKA",
    "name": "ARKHA",
    "name_other": "ARKHA",
    "lat": "25.867500",
    "long": "81.331400"
  },
  {
    "code": "ARKV",
    "name": "ARAKU VALLEY",
    "name_other": "ARAKU VALLEY",
    "lat": "18.303573",
    "long": "82.910004"
  },
  {
    "code": "ARL",
    "name": "ARAUL MAKANPUR",
    "name_other": "ARAUL MAKANPUR",
    "lat": "26.920600",
    "long": "80.018600"
  },
  {
    "code": "ARMU",
    "name": "ARMUR",
    "name_other": "ARMUR",
    "lat": "18.780682",
    "long": "78.311228"
  },
  {
    "code": "ARN",
    "name": "ARAND",
    "name_other": "ARAND",
    "lat": "21.101700",
    "long": "82.182700"
  },
  {
    "code": "ARNA",
    "name": "ARNIYA",
    "name_other": "ARNIYA",
    "lat": "27.008973",
    "long": "76.515827"
  },
  {
    "code": "ARNB",
    "name": "AMARUN",
    "name_other": "AMARUN",
    "lat": "23.368400",
    "long": "87.908400"
  },
  {
    "code": "ARNG",
    "name": "ARUN NAGAR P.H.",
    "name_other": "ARUN NAGAR P.H.",
    "lat": "20.730107",
    "long": "79.979267"
  },
  {
    "code": "ARNH",
    "name": "ARJUNAHALLI",
    "name_other": "ARJUNAHALLI",
    "lat": "12.512587",
    "long": "76.391459"
  },
  {
    "code": "AROR",
    "name": "AROOR HALT",
    "name_other": "AROOR HALT",
    "lat": "9.878893",
    "long": "76.302623"
  },
  {
    "code": "ARP",
    "name": "ATRAMPUR",
    "name_other": "ATRAMPUR",
    "lat": "25.572000",
    "long": "81.745600"
  },
  {
    "code": "ARPL",
    "name": "AREPALLI HALT",
    "name_other": "AREPALLI HALT",
    "lat": "16.270504",
    "long": "77.862339"
  },
  {
    "code": "ARPR",
    "name": "ALIRAJPUR",
    "name_other": "ALIRAJPUR",
    "lat": "22.300229",
    "long": "74.399140"
  },
  {
    "code": "ARQ",
    "name": "ARARIYA COURT JN.",
    "name_other": "ARARIYA COURT JN.",
    "lat": "26.115061",
    "long": "87.447052"
  },
  {
    "code": "ARR",
    "name": "ARARIYA JN.",
    "name_other": "ARARIYA JN.",
    "lat": "26.136638",
    "long": "87.411518"
  },
  {
    "code": "ARU",
    "name": "ARASALU",
    "name_other": "ARASALU",
    "lat": "13.998800",
    "long": "75.314000"
  },
  {
    "code": "ARV",
    "name": "ARNI ROAD",
    "name_other": "ARNI ROAD",
    "lat": "12.630700",
    "long": "79.209000"
  },
  {
    "code": "ARX",
    "name": "ARELI",
    "name_other": "ARELI",
    "lat": "27.970900",
    "long": "79.886300"
  },
  {
    "code": "AS",
    "name": "ARJANSAR",
    "name_other": "ARJANSAR",
    "lat": "28.933726",
    "long": "73.871899"
  },
  {
    "code": "ASAF",
    "name": "ASIFABAD ROAD",
    "name_other": "ASIFABAD ROAD",
    "lat": "19.256700",
    "long": "79.416800"
  },
  {
    "code": "ASAN",
    "name": "ASAN",
    "name_other": "ASAN",
    "lat": "29.401000",
    "long": "76.882300"
  },
  {
    "code": "ASAR",
    "name": "ASARA HALT",
    "name_other": "ASARA HALT",
    "lat": "29.249415",
    "long": "77.291671"
  },
  {
    "code": "ASB",
    "name": "ASANBONI",
    "name_other": "ASANBONI",
    "lat": "22.712100",
    "long": "86.313600"
  },
  {
    "code": "ASCE",
    "name": "ATHSARAI",
    "name_other": "ATHSARAI",
    "lat": "25.682200",
    "long": "81.255900"
  },
  {
    "code": "ASD",
    "name": "AMBASAMUDRAM",
    "name_other": "AMBASAMUDRAM",
    "lat": "8.707932",
    "long": "77.438683"
  },
  {
    "code": "ASE",
    "name": "ASAUDAH",
    "name_other": "ASAUDAH",
    "lat": "28.736958",
    "long": "76.859193"
  },
  {
    "code": "ASH",
    "name": "AISHBAGH",
    "name_other": "AISHBAGH",
    "lat": "26.859069",
    "long": "80.917826"
  },
  {
    "code": "ASI",
    "name": "ARSENI",
    "name_other": "ARSENI",
    "lat": "27.243300",
    "long": "80.394100"
  },
  {
    "code": "ASJP",
    "name": "AMAR SAHEED JAGDEO PRASAD HALT",
    "name_other": "AMAR SAHEED JAGDEO PRASAD HALT",
    "lat": "25.560407",
    "long": "84.410019"
  },
  {
    "code": "ASK",
    "name": "ARSIKERE JN",
    "name_other": "ARSIKERE JN",
    "lat": "13.314200",
    "long": "76.251800"
  },
  {
    "code": "ASKN",
    "name": "ASHOK NAGAR",
    "name_other": "ASHOK NAGAR",
    "lat": "24.580200",
    "long": "77.726800"
  },
  {
    "code": "ASKR",
    "name": "ASHOK NAGAR RD",
    "name_other": "ASHOK NAGAR RD",
    "lat": "22.826500",
    "long": "88.628500"
  },
  {
    "code": "ASL",
    "name": "ASLAODA",
    "name_other": "ASLAODA",
    "lat": "23.229600",
    "long": "75.615200"
  },
  {
    "code": "ASLU",
    "name": "ASLU",
    "name_other": "ASLU",
    "lat": "28.369048",
    "long": "75.074902"
  },
  {
    "code": "ASN",
    "name": "ASANSOL JN.",
    "name_other": "ASANSOL JN.",
    "lat": "23.691101",
    "long": "86.974812"
  },
  {
    "code": "ASNE",
    "name": "ASANSOL EAST CABIN",
    "name_other": "ASANSOL EAST CABIN",
    "lat": "23.686032",
    "long": "86.990776"
  },
  {
    "code": "ASO",
    "name": "ASANGAON",
    "name_other": "ASANGAON",
    "lat": "19.439200",
    "long": "73.307800"
  },
  {
    "code": "ASP",
    "name": "ASPARI",
    "name_other": "ASPARI",
    "lat": "15.455000",
    "long": "77.356400"
  },
  {
    "code": "ASR",
    "name": "AMRITSAR",
    "name_other": "AMRITSAR",
    "lat": "31.631752",
    "long": "74.858265"
  },
  {
    "code": "AST",
    "name": "ASAOTI",
    "name_other": "ASAOTI",
    "lat": "28.251318",
    "long": "77.324009"
  },
  {
    "code": "ASV",
    "name": "ASARVA JN",
    "name_other": "ASARVA JN",
    "lat": "23.043721",
    "long": "72.612677"
  },
  {
    "code": "AT",
    "name": "ASNOTI",
    "name_other": "ASNOTI",
    "lat": "14.876276",
    "long": "74.147673"
  },
  {
    "code": "ATA",
    "name": "ATA",
    "name_other": "ATA",
    "lat": "26.067500",
    "long": "79.651100"
  },
  {
    "code": "ATB",
    "name": "ALATTAMBADI",
    "name_other": "ALATTAMBADI",
    "lat": "10.578700",
    "long": "79.640700"
  },
  {
    "code": "ATC",
    "name": "ARTS COLLEGE",
    "name_other": "ARTS COLLEGE",
    "lat": "17.418400",
    "long": "78.519900"
  },
  {
    "code": "ATE",
    "name": "ATARRA",
    "name_other": "ATARRA",
    "lat": "25.291200",
    "long": "80.576300"
  },
  {
    "code": "ATG",
    "name": "ATGAON",
    "name_other": "ATGAON",
    "lat": "19.467700",
    "long": "73.300300"
  },
  {
    "code": "ATGC",
    "name": "ALPHA TERMINALS P LTD GSMCT CHANDISAR",
    "name_other": "ALPHA TERMINALS P LTD GSMCT CHANDISAR",
    "lat": "",
    "long": ""
  },
  {
    "code": "ATH",
    "name": "ANTAH",
    "name_other": "ANTAH",
    "lat": "25.161000",
    "long": "76.307100"
  },
  {
    "code": "ATKS",
    "name": "ATWA KURSATH",
    "name_other": "ATWA KURSATH",
    "lat": "27.135200",
    "long": "80.280400"
  },
  {
    "code": "ATL",
    "name": "ATHMAL GOLA",
    "name_other": "ATHMAL GOLA",
    "lat": "25.453300",
    "long": "85.623100"
  },
  {
    "code": "ATM",
    "name": "ALTAGRAM",
    "name_other": "ALTAGRAM",
    "lat": "26.607700",
    "long": "88.946300"
  },
  {
    "code": "ATMO",
    "name": "AITHAL",
    "name_other": "AITHAL",
    "lat": "29.805100",
    "long": "78.041300"
  },
  {
    "code": "ATNR",
    "name": "AWATARNAGAR",
    "name_other": "AWATARNAGAR",
    "lat": "25.764700",
    "long": "84.957100"
  },
  {
    "code": "ATP",
    "name": "ANANTAPUR",
    "name_other": "ANANTAPUR",
    "lat": "14.686200",
    "long": "77.595000"
  },
  {
    "code": "ATPA",
    "name": "AWANTIPURA",
    "name_other": "AWANTIPURA",
    "lat": "33.894678",
    "long": "74.981861"
  },
  {
    "code": "ATQ",
    "name": "ARANTANGI",
    "name_other": "ARANTANGI",
    "lat": "10.171671",
    "long": "79.003029"
  },
  {
    "code": "ATR",
    "name": "ATTAR",
    "name_other": "ATTAR",
    "lat": "21.998764",
    "long": "76.204948"
  },
  {
    "code": "ATRI",
    "name": "ATRI PH",
    "name_other": "ATRI PH",
    "lat": "",
    "long": ""
  },
  {
    "code": "ATRR",
    "name": "ATRAURA",
    "name_other": "ATRAURA",
    "lat": "25.316600",
    "long": "82.314500"
  },
  {
    "code": "ATRU",
    "name": "ATRU",
    "name_other": "ATRU",
    "lat": "24.882000",
    "long": "76.670100"
  },
  {
    "code": "ATS",
    "name": "ATTABIRA",
    "name_other": "ATTABIRA",
    "lat": "21.387800",
    "long": "83.792400"
  },
  {
    "code": "ATT",
    "name": "ATARI",
    "name_other": "ATARI",
    "lat": "31.594400",
    "long": "74.606700"
  },
  {
    "code": "ATU",
    "name": "ATTUR",
    "name_other": "ATTUR",
    "lat": "11.595068",
    "long": "78.592372"
  },
  {
    "code": "ATUL",
    "name": "ATUL",
    "name_other": "ATUL",
    "lat": "20.548200",
    "long": "72.927900"
  },
  {
    "code": "ATW",
    "name": "ATWA MUTHIA HALT",
    "name_other": "ATWA MUTHIA HALT",
    "lat": "27.273970",
    "long": "80.415459"
  },
  {
    "code": "ATX",
    "name": "ALINAGAR TOLA",
    "name_other": "ALINAGAR TOLA",
    "lat": "25.842694",
    "long": "87.347660"
  },
  {
    "code": "AUB",
    "name": "ALUABARI ROAD",
    "name_other": "ALUABARI ROAD",
    "lat": "26.269481",
    "long": "88.185410"
  },
  {
    "code": "AUBR",
    "name": "ANUGRAHA N ROAD",
    "name_other": "ANUGRAHA N ROAD",
    "lat": "24.855500",
    "long": "84.329400"
  },
  {
    "code": "AUI",
    "name": "AURAHI",
    "name_other": "AURAHI",
    "lat": "25.822500",
    "long": "87.134500"
  },
  {
    "code": "AUL",
    "name": "AGSAULI",
    "name_other": "AGSAULI",
    "lat": "27.705500",
    "long": "78.444400"
  },
  {
    "code": "AUN",
    "name": "AURANG NAGAR",
    "name_other": "AURANG NAGAR",
    "lat": "29.044315",
    "long": "75.974922"
  },
  {
    "code": "AUNG",
    "name": "AUNG",
    "name_other": "AUNG",
    "lat": "26.164200",
    "long": "80.544500"
  },
  {
    "code": "AUR",
    "name": "ATRAULI ROAD",
    "name_other": "ATRAULI ROAD",
    "lat": "28.081712",
    "long": "78.206949"
  },
  {
    "code": "AUS",
    "name": "ANUPSHAHR",
    "name_other": "ANUPSHAHR",
    "lat": "28.965400",
    "long": "75.200500"
  },
  {
    "code": "AUWA",
    "name": "AUWA",
    "name_other": "AUWA",
    "lat": "25.665047",
    "long": "73.564453"
  },
  {
    "code": "AV",
    "name": "ASVALI",
    "name_other": "ASVALI",
    "lat": "19.817400",
    "long": "73.751100"
  },
  {
    "code": "AVC",
    "name": "AMARAVATHI COLONY JUNCTION",
    "name_other": "AMARAVATHI COLONY JUNCTION",
    "lat": "14.498259",
    "long": "75.854133"
  },
  {
    "code": "AVD",
    "name": "AVADI",
    "name_other": "AVADI",
    "lat": "13.118017",
    "long": "80.100288"
  },
  {
    "code": "AVK",
    "name": "ARAVANKADU",
    "name_other": "ARAVANKADU",
    "lat": "11.359400",
    "long": "76.769500"
  },
  {
    "code": "AVL",
    "name": "AMRITVEL",
    "name_other": "AMRITVEL",
    "lat": "21.077012",
    "long": "71.679311"
  },
  {
    "code": "AVLI",
    "name": "ARAVALLI",
    "name_other": "ARAVALLI",
    "lat": "16.620000",
    "long": "81.598600"
  },
  {
    "code": "AVN",
    "name": "ANAVARDIKHANPETTAI",
    "name_other": "ANAVARDIKHANPETTAI",
    "lat": "13.050884",
    "long": "79.567730"
  },
  {
    "code": "AVP",
    "name": "ABHANPUR JN",
    "name_other": "ABHANPUR JN",
    "lat": "21.052623",
    "long": "81.745319"
  },
  {
    "code": "AVRD",
    "name": "ARAVALI ROAD",
    "name_other": "ARAVALI ROAD",
    "lat": "17.316431",
    "long": "73.538060"
  },
  {
    "code": "AVS",
    "name": "AUVANESWSAREM",
    "name_other": "AUVANESWSAREM",
    "lat": "9.036800",
    "long": "76.853100"
  },
  {
    "code": "AVT",
    "name": "AVATIHALLI H",
    "name_other": "AVATIHALLI H",
    "lat": "13.298800",
    "long": "77.726400"
  },
  {
    "code": "AWB",
    "name": "AURANGABAD",
    "name_other": "AURANGABAD",
    "lat": "19.859566",
    "long": "75.310936"
  },
  {
    "code": "AWG",
    "name": "AWA GARH",
    "name_other": "AWA GARH",
    "lat": "27.463900",
    "long": "78.473100"
  },
  {
    "code": "AWH",
    "name": "ALEWAHI",
    "name_other": "ALEWAHI",
    "lat": "20.388400",
    "long": "79.710600"
  },
  {
    "code": "AWL",
    "name": "ALAWALPUR",
    "name_other": "ALAWALPUR",
    "lat": "31.425500",
    "long": "75.642500"
  },
  {
    "code": "AWM",
    "name": "ASWAPURAM",
    "name_other": "ASWAPURAM",
    "lat": "17.821000",
    "long": "80.801000"
  },
  {
    "code": "AWP",
    "name": "AGHWANPUR",
    "name_other": "AGHWANPUR",
    "lat": "28.939900",
    "long": "78.703200"
  },
  {
    "code": "AWPR",
    "name": "AWAPUR",
    "name_other": "AWAPUR",
    "lat": "26.508676",
    "long": "85.652676"
  },
  {
    "code": "AWR",
    "name": "ALWAR JUNCTION",
    "name_other": "ALWAR JUNCTION",
    "lat": "27.559493",
    "long": "76.621485"
  },
  {
    "code": "AWS",
    "name": "AWASANI HALT",
    "name_other": "AWASANI HALT",
    "lat": "27.159600",
    "long": "84.051900"
  },
  {
    "code": "AWT",
    "name": "ALWAR TIRUNAGRI",
    "name_other": "ALWAR TIRUNAGRI",
    "lat": "8.602000",
    "long": "77.941500"
  },
  {
    "code": "AWY",
    "name": "ALUVA",
    "name_other": "ALUVA",
    "lat": "10.107900",
    "long": "76.356200"
  },
  {
    "code": "AXA",
    "name": "AMARSAR",
    "name_other": "AMARSAR",
    "lat": "22.585800",
    "long": "70.916900"
  },
  {
    "code": "AXK",
    "name": "ASOKHAR",
    "name_other": "ASOKHAR",
    "lat": "26.525800",
    "long": "78.556100"
  },
  {
    "code": "AXR",
    "name": "ALLURU ROAD",
    "name_other": "ALLURU ROAD",
    "lat": "14.710400",
    "long": "79.988900"
  },
  {
    "code": "AY",
    "name": "AYODHYA DHAM JN",
    "name_other": "AYODHYA DHAM JN",
    "lat": "26.787874",
    "long": "82.200694"
  },
  {
    "code": "AYB",
    "name": "ALIYABAD",
    "name_other": "ALIYABAD",
    "lat": "16.877818",
    "long": "75.757856"
  },
  {
    "code": "AYC",
    "name": "AYODHYA CANTT",
    "name_other": "AYODHYA CANTT",
    "lat": "",
    "long": ""
  },
  {
    "code": "AYD",
    "name": "AYANDUR",
    "name_other": "AYANDUR",
    "lat": "11.966900",
    "long": "79.341000"
  },
  {
    "code": "AYI",
    "name": "AYINGUDI",
    "name_other": "AYINGUDI",
    "lat": "10.242163",
    "long": "79.124737"
  },
  {
    "code": "AYM",
    "name": "ADIYAKKAMUNGALM",
    "name_other": "ADIYAKKAMUNGALM",
    "lat": "10.757000",
    "long": "79.680900"
  },
  {
    "code": "AYN",
    "name": "AIYANAPURAM",
    "name_other": "AIYANAPURAM",
    "lat": "10.788700",
    "long": "78.929100"
  },
  {
    "code": "AYR",
    "name": "AYYALUR",
    "name_other": "AYYALUR",
    "lat": "10.483300",
    "long": "78.157000"
  },
  {
    "code": "AYRN",
    "name": "AKSHAYWAT RAI NAGAR",
    "name_other": "AKSHAYWAT RAI NAGAR",
    "lat": "25.696300",
    "long": "85.280100"
  },
  {
    "code": "AYU",
    "name": "ABHAYAPURI ASAM",
    "name_other": "ABHAYAPURI ASAM",
    "lat": "26.356900",
    "long": "90.642000"
  },
  {
    "code": "AYV",
    "name": "ARYANKAVU",
    "name_other": "ARYANKAVU",
    "lat": "8.981200",
    "long": "77.152900"
  },
  {
    "code": "AYVN",
    "name": "ARYANKAVU NEW BLOCK",
    "name_other": "ARYANKAVU NEW BLOCK",
    "lat": "8.955414",
    "long": "77.134661"
  },
  {
    "code": "AZ",
    "name": "AZIMGANJ JN",
    "name_other": "AZIMGANJ JN",
    "lat": "24.218553",
    "long": "88.256264"
  },
  {
    "code": "AZA",
    "name": "AZARA",
    "name_other": "AZARA",
    "lat": "26.099030",
    "long": "91.613617"
  },
  {
    "code": "AZK",
    "name": "AZHWARKURICHI",
    "name_other": "AZHWARKURICHI",
    "lat": "8.789065",
    "long": "77.375507"
  },
  {
    "code": "AZP",
    "name": "AYYAMPET",
    "name_other": "AYYAMPET",
    "lat": "10.896300",
    "long": "79.206700"
  },
  {
    "code": "AZR",
    "name": "AZAMNAGAR ROAD",
    "name_other": "AZAMNAGAR ROAD",
    "lat": "25.555700",
    "long": "87.852400"
  },
  {
    "code": "BA",
    "name": "BANDRA",
    "name_other": "BANDRA",
    "lat": "19.054600",
    "long": "72.840600"
  },
  {
    "code": "BAA",
    "name": "BARALA",
    "name_other": "BARALA",
    "lat": "24.300900",
    "long": "88.040200"
  },
  {
    "code": "BAAR",
    "name": "BANDAR PH",
    "name_other": "BANDAR PH",
    "lat": "22.052312",
    "long": "88.087006"
  },
  {
    "code": "BAB",
    "name": "BABINA",
    "name_other": "BABINA",
    "lat": "25.238200",
    "long": "78.452100"
  },
  {
    "code": "BABH",
    "name": "BAHALBA HALT",
    "name_other": "BAHALBA HALT",
    "lat": "1.000000",
    "long": "1.000000"
  },
  {
    "code": "BABR",
    "name": "BALANAGAR",
    "name_other": "BALANAGAR",
    "lat": "16.947700",
    "long": "78.189000"
  },
  {
    "code": "BAC",
    "name": "BARGACHIA",
    "name_other": "BARGACHIA",
    "lat": "22.666888",
    "long": "88.137753"
  },
  {
    "code": "BAD",
    "name": "BAD",
    "name_other": "BAD",
    "lat": "27.395800",
    "long": "77.689500"
  },
  {
    "code": "BADH",
    "name": "BADHAUNA HALT",
    "name_other": "BADHAUNA HALT",
    "lat": "25.297926",
    "long": "85.423850"
  },
  {
    "code": "BADK",
    "name": "BARKA",
    "name_other": "BARKA",
    "lat": "29.074000",
    "long": "77.273700"
  },
  {
    "code": "BADR",
    "name": "BHADER",
    "name_other": "BHADER",
    "lat": "21.364770",
    "long": "70.928679"
  },
  {
    "code": "BAE",
    "name": "BALIAKHERI",
    "name_other": "BALIAKHERI",
    "lat": "29.928400",
    "long": "77.633600"
  },
  {
    "code": "BAF",
    "name": "BAP",
    "name_other": "BAP",
    "lat": "27.342900",
    "long": "72.384200"
  },
  {
    "code": "BAGA",
    "name": "BHAGEGA",
    "name_other": "BHAGEGA",
    "lat": "27.677200",
    "long": "75.720900"
  },
  {
    "code": "BAGD",
    "name": "BAGWADA",
    "name_other": "BAGWADA",
    "lat": "20.439560",
    "long": "72.916946"
  },
  {
    "code": "BAGJ",
    "name": "BARHARAGANJ",
    "name_other": "BARHARAGANJ",
    "lat": "26.919315",
    "long": "83.907566"
  },
  {
    "code": "BAGL",
    "name": "BARA GOPAL",
    "name_other": "BARA GOPAL",
    "lat": "25.764900",
    "long": "84.906600"
  },
  {
    "code": "BAH",
    "name": "BHABHAR",
    "name_other": "BHABHAR",
    "lat": "24.064980",
    "long": "71.615474"
  },
  {
    "code": "BAHI",
    "name": "BALENAHALLI",
    "name_other": "BALENAHALLI",
    "lat": "14.250241",
    "long": "76.566296"
  },
  {
    "code": "BAHL",
    "name": "BANIHAL",
    "name_other": "BANIHAL",
    "lat": "",
    "long": ""
  },
  {
    "code": "BAHN",
    "name": "BABHAN GAON HALT",
    "name_other": "BABHAN GAON HALT",
    "lat": "25.465102",
    "long": "87.817005"
  },
  {
    "code": "BAHP",
    "name": "BAND HAMIRPUR",
    "name_other": "BAND HAMIRPUR",
    "lat": "26.329700",
    "long": "80.744300"
  },
  {
    "code": "BAHW",
    "name": "BAHIR KHANDA",
    "name_other": "BAHIR KHANDA",
    "lat": "22.851500",
    "long": "88.070600"
  },
  {
    "code": "BAI",
    "name": "BASSI",
    "name_other": "BASSI",
    "lat": "26.840767",
    "long": "76.047363"
  },
  {
    "code": "BAJ",
    "name": "BHALEJ",
    "name_other": "BHALEJ",
    "lat": "22.632550",
    "long": "73.034019"
  },
  {
    "code": "BAJE",
    "name": "BAJAKARE HALT",
    "name_other": "BAJAKARE HALT",
    "lat": "12.720726",
    "long": "75.509205"
  },
  {
    "code": "BAK",
    "name": "BHANKARI",
    "name_other": "BHANKARI",
    "lat": "26.975321",
    "long": "76.437378"
  },
  {
    "code": "BAKA",
    "name": "BANKA",
    "name_other": "BANKA",
    "lat": "24.878000",
    "long": "86.916100"
  },
  {
    "code": "BAKK",
    "name": "BAKKAL",
    "name_other": "BAKKAL",
    "lat": "",
    "long": ""
  },
  {
    "code": "BAKL",
    "name": "BAKAL",
    "name_other": "BAKAL",
    "lat": "21.124000",
    "long": "80.941300"
  },
  {
    "code": "BAKT",
    "name": "BARHARA KOTHI",
    "name_other": "BARHARA KOTHI",
    "lat": "25.776800",
    "long": "87.096200"
  },
  {
    "code": "BAL",
    "name": "BUDALUR",
    "name_other": "BUDALUR",
    "lat": "10.783100",
    "long": "78.981700"
  },
  {
    "code": "BALE",
    "name": "BALE",
    "name_other": "BALE",
    "lat": "17.672400",
    "long": "75.855000"
  },
  {
    "code": "BALR",
    "name": "BAITALPUR",
    "name_other": "BAITALPUR",
    "lat": "26.552100",
    "long": "83.738000"
  },
  {
    "code": "BALT",
    "name": "BALTIKURI JN.",
    "name_other": "BALTIKURI JN.",
    "lat": "22.606513",
    "long": "88.292409"
  },
  {
    "code": "BALU",
    "name": "BALUGAN",
    "name_other": "BALUGAN",
    "lat": "19.747200",
    "long": "85.200800"
  },
  {
    "code": "BAM",
    "name": "BRAHMAPUR",
    "name_other": "BRAHMAPUR",
    "lat": "19.296400",
    "long": "84.796900"
  },
  {
    "code": "BAMA",
    "name": "BIRAMBAD",
    "name_other": "BIRAMBAD",
    "lat": "26.922400",
    "long": "77.324600"
  },
  {
    "code": "BAMR",
    "name": "BAMUR",
    "name_other": "BAMUR",
    "lat": "21.006600",
    "long": "84.475700"
  },
  {
    "code": "BAND",
    "name": "BANASWADI",
    "name_other": "BANASWADI",
    "lat": "13.005770",
    "long": "77.628236"
  },
  {
    "code": "BANE",
    "name": "BASNI",
    "name_other": "BASNI",
    "lat": "26.223103",
    "long": "73.010779"
  },
  {
    "code": "BANI",
    "name": "BANI",
    "name_other": "BANI",
    "lat": "26.226900",
    "long": "81.620400"
  },
  {
    "code": "BANO",
    "name": "BANO",
    "name_other": "BANO",
    "lat": "22.649839",
    "long": "84.896078"
  },
  {
    "code": "BAO",
    "name": "BANMOR",
    "name_other": "BANMOR",
    "lat": "26.355435",
    "long": "78.098797"
  },
  {
    "code": "BAOL",
    "name": "BAOLI",
    "name_other": "BAOLI",
    "lat": "29.136900",
    "long": "77.277800"
  },
  {
    "code": "BAP",
    "name": "BELAPUR",
    "name_other": "BELAPUR",
    "lat": "19.619500",
    "long": "74.662500"
  },
  {
    "code": "BAPN",
    "name": "BAIRPUR HALT",
    "name_other": "BAIRPUR HALT",
    "lat": "25.738634",
    "long": "86.140937"
  },
  {
    "code": "BAPR",
    "name": "BALLUPUR",
    "name_other": "BALLUPUR",
    "lat": "27.593900",
    "long": "79.106000"
  },
  {
    "code": "BAQ",
    "name": "GANJ BASODA",
    "name_other": "GANJ BASODA",
    "lat": "23.845257",
    "long": "77.944736"
  },
  {
    "code": "BAR",
    "name": "BAR",
    "name_other": "BAR",
    "lat": "26.063028",
    "long": "74.113169"
  },
  {
    "code": "BARA",
    "name": "BARA",
    "name_other": "BARA",
    "lat": "26.186164",
    "long": "73.700044"
  },
  {
    "code": "BARD",
    "name": "DUVRI KALAN",
    "name_other": "DUVRI KALAN",
    "lat": "23.993700",
    "long": "81.507500"
  },
  {
    "code": "BARH",
    "name": "BARH",
    "name_other": "BARH",
    "lat": "25.461700",
    "long": "85.709400"
  },
  {
    "code": "BARI",
    "name": "BARI",
    "name_other": "BARI",
    "lat": "26.649798",
    "long": "77.617915"
  },
  {
    "code": "BARJ",
    "name": "BHARATGARH",
    "name_other": "BHARATGARH",
    "lat": "31.099100",
    "long": "76.596400"
  },
  {
    "code": "BARL",
    "name": "BARAL",
    "name_other": "BARAL",
    "lat": "28.494300",
    "long": "77.810200"
  },
  {
    "code": "BARN",
    "name": "BARANAGAR ROAD",
    "name_other": "BARANAGAR ROAD",
    "lat": "22.653400",
    "long": "88.378600"
  },
  {
    "code": "BARS",
    "name": "BARSANA",
    "name_other": "BARSANA",
    "lat": "27.442700",
    "long": "77.149700"
  },
  {
    "code": "BARU",
    "name": "BAHARU",
    "name_other": "BAHARU",
    "lat": "22.205008",
    "long": "88.444190"
  },
  {
    "code": "BASN",
    "name": "BHAINSWAN",
    "name_other": "BHAINSWAN",
    "lat": "29.093900",
    "long": "76.680200"
  },
  {
    "code": "BASR",
    "name": "BATESAR",
    "name_other": "BATESAR",
    "lat": "26.907882",
    "long": "78.558856"
  },
  {
    "code": "BAT",
    "name": "BATALA JN",
    "name_other": "BATALA JN",
    "lat": "31.821500",
    "long": "75.194400"
  },
  {
    "code": "BATL",
    "name": "BAIHATOLA",
    "name_other": "BAIHATOLA",
    "lat": "23.231000",
    "long": "82.058400"
  },
  {
    "code": "BATM",
    "name": "BATALA SUGAR ML",
    "name_other": "BATALA SUGAR ML",
    "lat": "31.857100",
    "long": "75.228700"
  },
  {
    "code": "BAU",
    "name": "BURHANPUR",
    "name_other": "BURHANPUR",
    "lat": "21.334200",
    "long": "76.198500"
  },
  {
    "code": "BAV",
    "name": "BARUVA",
    "name_other": "BARUVA",
    "lat": "18.901000",
    "long": "84.554400"
  },
  {
    "code": "BAW",
    "name": "CHIK BANAVAR",
    "name_other": "CHIK BANAVAR",
    "lat": "13.073900",
    "long": "77.506700"
  },
  {
    "code": "BAWA",
    "name": "BALWARA",
    "name_other": "BALWARA",
    "lat": "25.510996",
    "long": "72.551651"
  },
  {
    "code": "BAWD",
    "name": "BHADWAD",
    "name_other": "BHADWAD",
    "lat": "21.323000",
    "long": "74.098200"
  },
  {
    "code": "BAY",
    "name": "BALLARI JN.",
    "name_other": "BALLARI JN.",
    "lat": "15.145375",
    "long": "76.922235"
  },
  {
    "code": "BAYP",
    "name": "BALLARI BYPASS CABIN",
    "name_other": "BALLARI BYPASS CABIN",
    "lat": "",
    "long": ""
  },
  {
    "code": "BAZ",
    "name": "BARAN",
    "name_other": "BARAN",
    "lat": "25.096500",
    "long": "76.504800"
  },
  {
    "code": "BBA",
    "name": "BABRALA",
    "name_other": "BABRALA",
    "lat": "28.266613",
    "long": "78.403534"
  },
  {
    "code": "BBAE",
    "name": "BAIDYABATI",
    "name_other": "BAIDYABATI",
    "lat": "22.795200",
    "long": "88.331800"
  },
  {
    "code": "BBAI",
    "name": "BHADBHUNJA",
    "name_other": "BHADBHUNJA",
    "lat": "21.165900",
    "long": "73.693400"
  },
  {
    "code": "BBAR",
    "name": "BARA",
    "name_other": "BARA",
    "lat": "23.977620",
    "long": "81.116679"
  },
  {
    "code": "BBC",
    "name": "BHACHHBAR",
    "name_other": "BHACHHBAR",
    "lat": "25.731800",
    "long": "71.044400"
  },
  {
    "code": "BBD",
    "name": "BABLAD",
    "name_other": "BABLAD",
    "lat": "17.337079",
    "long": "76.778769"
  },
  {
    "code": "BBDA",
    "name": "BARBENDA JN",
    "name_other": "BARBENDA JN",
    "lat": "23.420723",
    "long": "86.109982"
  },
  {
    "code": "BBDB",
    "name": "BENOY BADAL DINESH BAG",
    "name_other": "BENOY BADAL DINESH BAG",
    "lat": "22.576757",
    "long": "88.346568"
  },
  {
    "code": "BBDE",
    "name": "BABARPUR",
    "name_other": "BABARPUR",
    "lat": "29.449900",
    "long": "76.966400"
  },
  {
    "code": "BBE",
    "name": "BAGHI BARDIHA",
    "name_other": "BAGHI BARDIHA",
    "lat": "24.953000",
    "long": "85.623300"
  },
  {
    "code": "BBGN",
    "name": "BARUA BAMUNGAON",
    "name_other": "BARUA BAMUNGAON",
    "lat": "26.661700",
    "long": "93.944200"
  },
  {
    "code": "BBHT",
    "name": "BARABAR HALT",
    "name_other": "BARABAR HALT",
    "lat": "25.008057",
    "long": "84.977198"
  },
  {
    "code": "BBI",
    "name": "BARA BANI",
    "name_other": "BARA BANI",
    "lat": "23.743555",
    "long": "87.019615"
  },
  {
    "code": "BBJ",
    "name": "BABAGANJ",
    "name_other": "BABAGANJ",
    "lat": "27.963900",
    "long": "81.568200"
  },
  {
    "code": "BBK",
    "name": "BARABANKI JN",
    "name_other": "BARABANKI JN",
    "lat": "26.935300",
    "long": "81.181000"
  },
  {
    "code": "BBKR",
    "name": "BABA BAKALARAYA",
    "name_other": "BABA BAKALARAYA",
    "lat": "31.541600",
    "long": "75.238600"
  },
  {
    "code": "BBL",
    "name": "BALRAI",
    "name_other": "BALRAI",
    "lat": "26.931900",
    "long": "78.807500"
  },
  {
    "code": "BBLA",
    "name": "BHYABLA HALT",
    "name_other": "BHYABLA HALT",
    "lat": "22.654690",
    "long": "88.855362"
  },
  {
    "code": "BBLK",
    "name": "B L DASPURI",
    "name_other": "B L DASPURI",
    "lat": "27.317700",
    "long": "79.366800"
  },
  {
    "code": "BBM",
    "name": "BARABHUM",
    "name_other": "BARABHUM",
    "lat": "23.091686",
    "long": "86.211637"
  },
  {
    "code": "BBMN",
    "name": "BARI BRAHMAN",
    "name_other": "BARI BRAHMAN",
    "lat": "32.639100",
    "long": "74.916300"
  },
  {
    "code": "BBN",
    "name": "BARBIL",
    "name_other": "BARBIL",
    "lat": "22.104500",
    "long": "85.369000"
  },
  {
    "code": "BBNB",
    "name": "BOGIBEEL BRIDGE NORTH BLOCK HUT",
    "name_other": "BOGIBEEL BRIDGE NORTH BLOCK HUT",
    "lat": "27.563211",
    "long": "94.666050"
  },
  {
    "code": "BBNH",
    "name": "BEDRA BOMMANAHALLI",
    "name_other": "BEDRA BOMMANAHALLI",
    "lat": "14.136671",
    "long": "76.224624"
  },
  {
    "code": "BBO",
    "name": "BABUGARH",
    "name_other": "BABUGARH",
    "lat": "28.747300",
    "long": "77.855400"
  },
  {
    "code": "BBPR",
    "name": "BABUPUR",
    "name_other": "BABUPUR",
    "lat": "27.349600",
    "long": "81.070000"
  },
  {
    "code": "BBQ",
    "name": "BASIN BRIDGE JN",
    "name_other": "BASIN BRIDGE JN",
    "lat": "13.102500",
    "long": "80.271300"
  },
  {
    "code": "BBR",
    "name": "BAGH BAZAR",
    "name_other": "BAGH BAZAR",
    "lat": "22.605196",
    "long": "88.365316"
  },
  {
    "code": "BBS",
    "name": "BHUBANESWAR",
    "name_other": "BHUBANESWAR",
    "lat": "20.265498",
    "long": "85.842705"
  },
  {
    "code": "BBSN",
    "name": "BHUBANESWAR NEW JN",
    "name_other": "BHUBANESWAR NEW JN",
    "lat": "20.381490",
    "long": "85.835832"
  },
  {
    "code": "BBT",
    "name": "BIRATI",
    "name_other": "BIRATI",
    "lat": "22.664700",
    "long": "88.427600"
  },
  {
    "code": "BBTR",
    "name": "BARBATPUR",
    "name_other": "BARBATPUR",
    "lat": "22.196700",
    "long": "77.920400"
  },
  {
    "code": "BBTY",
    "name": "BLOCK CABIN 'B' OF TOMKA 'Y' CONNECTION",
    "name_other": "BLOCK CABIN 'B' OF TOMKA 'Y' CONNECTION",
    "lat": "0.000000",
    "long": "0.000000"
  },
  {
    "code": "BBU",
    "name": "BHABUA ROAD",
    "name_other": "BHABUA ROAD",
    "lat": "25.173097",
    "long": "83.619003"
  },
  {
    "code": "BBW",
    "name": "BODARWAR",
    "name_other": "BODARWAR",
    "lat": "26.874000",
    "long": "83.632700"
  },
  {
    "code": "BBY",
    "name": "BHADROLI",
    "name_other": "BHADROLI",
    "lat": "26.305800",
    "long": "78.181200"
  },
  {
    "code": "BC",
    "name": "BAREILLY CITY",
    "name_other": "BAREILLY CITY",
    "lat": "28.355646",
    "long": "79.403708"
  },
  {
    "code": "BCA",
    "name": "BACHWARA JN",
    "name_other": "BACHWARA JN",
    "lat": "25.581378",
    "long": "85.900262"
  },
  {
    "code": "BCB",
    "name": "BHOWRA BH",
    "name_other": "BHOWRA BH",
    "lat": "23.670330",
    "long": "86.416569"
  },
  {
    "code": "BCD",
    "name": "BANSDIH ROAD",
    "name_other": "BANSDIH ROAD",
    "lat": "25.811303",
    "long": "84.214958"
  },
  {
    "code": "BCF",
    "name": "BANKAPASI",
    "name_other": "BANKAPASI",
    "lat": "23.572100",
    "long": "88.038500"
  },
  {
    "code": "BCGM",
    "name": "BAINCHIGRAM",
    "name_other": "BAINCHIGRAM",
    "lat": "23.106200",
    "long": "88.216600"
  },
  {
    "code": "BCH",
    "name": "BERCHHA",
    "name_other": "BERCHHA",
    "lat": "23.282800",
    "long": "76.334600"
  },
  {
    "code": "BCHL",
    "name": "BACHELI",
    "name_other": "BACHELI",
    "lat": "18.703600",
    "long": "81.238700"
  },
  {
    "code": "BCHT",
    "name": "BARH COURT HALT",
    "name_other": "BARH COURT HALT",
    "lat": "25.452674",
    "long": "85.688903"
  },
  {
    "code": "BCJ",
    "name": "BAGAHABISHUNPUR",
    "name_other": "BAGAHABISHUNPUR",
    "lat": "24.811600",
    "long": "84.204800"
  },
  {
    "code": "BCK",
    "name": "BALICHAK",
    "name_other": "BALICHAK",
    "lat": "22.357700",
    "long": "87.552900"
  },
  {
    "code": "BCL",
    "name": "MUMBAI CENTRAL(L)",
    "name_other": "MUMBAI CENTRAL(L)",
    "lat": "",
    "long": ""
  },
  {
    "code": "BCMR",
    "name": "BECHIMARI",
    "name_other": "BECHIMARI",
    "lat": "",
    "long": ""
  },
  {
    "code": "BCN",
    "name": "BACHHRAWAN",
    "name_other": "BACHHRAWAN",
    "lat": "26.476800",
    "long": "81.105000"
  },
  {
    "code": "BCOB",
    "name": "BHACHAU BG",
    "name_other": "BHACHAU BG",
    "lat": "23.301191",
    "long": "70.344772"
  },
  {
    "code": "BCP",
    "name": "BICHPURI",
    "name_other": "BICHPURI",
    "lat": "27.176500",
    "long": "77.914400"
  },
  {
    "code": "BCPR",
    "name": "BACHHARPUR HALT",
    "name_other": "BACHHARPUR HALT",
    "lat": "26.490222",
    "long": "85.665053"
  },
  {
    "code": "BCQ",
    "name": "BARACHAK JN.",
    "name_other": "BARACHAK JN.",
    "lat": "23.707000",
    "long": "86.928400"
  },
  {
    "code": "BCRD",
    "name": "BARCHHI ROAD",
    "name_other": "BARCHHI ROAD",
    "lat": "21.951900",
    "long": "78.312000"
  },
  {
    "code": "BCU",
    "name": "BHUCHCHU",
    "name_other": "BHUCHCHU",
    "lat": "30.210212",
    "long": "75.095516"
  },
  {
    "code": "BCW",
    "name": "BHAWI",
    "name_other": "BHAWI",
    "lat": "26.227681",
    "long": "73.613548"
  },
  {
    "code": "BCY",
    "name": "VARANASI CITY",
    "name_other": "VARANASI CITY",
    "lat": "25.334228",
    "long": "83.014224"
  },
  {
    "code": "BCYN",
    "name": "BUDHDEVCHAK YADAV NAGAR",
    "name_other": "BUDHDEVCHAK YADAV NAGAR",
    "lat": "25.497072",
    "long": "85.328402"
  },
  {
    "code": "BD",
    "name": "BADNERA JN.",
    "name_other": "BADNERA JN.",
    "lat": "20.857163",
    "long": "77.732690"
  },
  {
    "code": "BDAG",
    "name": "BONIDANGA",
    "name_other": "BONIDANGA",
    "lat": "24.823000",
    "long": "87.810100"
  },
  {
    "code": "BDB",
    "name": "VRINDAVAN",
    "name_other": "VRINDAVAN",
    "lat": "27.576042",
    "long": "77.693510"
  },
  {
    "code": "BDBA",
    "name": "BADABANDHA",
    "name_other": "BADABANDHA",
    "lat": "20.276851",
    "long": "86.520081"
  },
  {
    "code": "BDBG",
    "name": "BADHAI BALAMGRH",
    "name_other": "BADHAI BALAMGRH",
    "lat": "30.459994",
    "long": "74.460268"
  },
  {
    "code": "BDBP",
    "name": "BASUDEBPUR",
    "name_other": "BASUDEBPUR",
    "lat": "24.639216",
    "long": "87.959461"
  },
  {
    "code": "BDBS",
    "name": "BINDUBASINI HALT",
    "name_other": "BINDUBASINI HALT",
    "lat": "24.792968",
    "long": "87.859383"
  },
  {
    "code": "BDC",
    "name": "BANDEL",
    "name_other": "BANDEL",
    "lat": "22.923577",
    "long": "88.379282"
  },
  {
    "code": "BDCR",
    "name": "BHADRACHALAM RD",
    "name_other": "BHADRACHALAM RD",
    "lat": "17.550300",
    "long": "80.616000"
  },
  {
    "code": "BDDR",
    "name": "BADODAR",
    "name_other": "BADODAR",
    "lat": "21.361300",
    "long": "70.296100"
  },
  {
    "code": "BDE",
    "name": "BODELI",
    "name_other": "BODELI",
    "lat": "22.269931",
    "long": "73.716320"
  },
  {
    "code": "BDGM",
    "name": "BADGAM",
    "name_other": "BADGAM",
    "lat": "34.015500",
    "long": "74.785100"
  },
  {
    "code": "BDGP",
    "name": "BADANAGUPPE",
    "name_other": "BADANAGUPPE",
    "lat": "11.990100",
    "long": "76.861000"
  },
  {
    "code": "BDGU",
    "name": "BUDAGUMPA",
    "name_other": "BUDAGUMPA",
    "lat": "15.395661",
    "long": "76.297296"
  },
  {
    "code": "BDH",
    "name": "BHEDIA",
    "name_other": "BHEDIA",
    "lat": "23.586700",
    "long": "87.711800"
  },
  {
    "code": "BDHA",
    "name": "BADHADA",
    "name_other": "BADHADA",
    "lat": "21.269800",
    "long": "71.336900"
  },
  {
    "code": "BDHL",
    "name": "BADHAL",
    "name_other": "BADHAL",
    "lat": "27.252000",
    "long": "75.451600"
  },
  {
    "code": "BDHN",
    "name": "BODHAN",
    "name_other": "BODHAN",
    "lat": "18.646113",
    "long": "77.888346"
  },
  {
    "code": "BDHP",
    "name": "BHUDPUR",
    "name_other": "BHUDPUR",
    "lat": "29.270200",
    "long": "77.292200"
  },
  {
    "code": "BDHT",
    "name": "BARDI HALT",
    "name_other": "BARDI HALT",
    "lat": "21.621200",
    "long": "78.822400"
  },
  {
    "code": "BDHY",
    "name": "BUDHI",
    "name_other": "BUDHI",
    "lat": "32.440800",
    "long": "75.433300"
  },
  {
    "code": "BDI",
    "name": "BHADLI",
    "name_other": "BHADLI",
    "lat": "21.022200",
    "long": "75.672900"
  },
  {
    "code": "BDIH",
    "name": "BANDHDIH",
    "name_other": "BANDHDIH",
    "lat": "23.671726",
    "long": "86.255379"
  },
  {
    "code": "BDIN",
    "name": "BHADAIYAN",
    "name_other": "BHADAIYAN",
    "lat": "26.170229",
    "long": "82.170353"
  },
  {
    "code": "BDJ",
    "name": "VADAKARA",
    "name_other": "VADAKARA",
    "lat": "11.593400",
    "long": "75.587000"
  },
  {
    "code": "BDKD",
    "name": "BHANDARKUND",
    "name_other": "BHANDARKUND",
    "lat": "21.836283",
    "long": "78.918631"
  },
  {
    "code": "BDKN",
    "name": "BANDHUA KALAN",
    "name_other": "BANDHUA KALAN",
    "lat": "26.272100",
    "long": "81.995600"
  },
  {
    "code": "BDKT",
    "name": "BADAKHANDITA",
    "name_other": "BADAKHANDITA",
    "lat": "20.365429",
    "long": "86.083816"
  },
  {
    "code": "BDL",
    "name": "VINDHYACHAL",
    "name_other": "VINDHYACHAL",
    "lat": "25.160600",
    "long": "82.501900"
  },
  {
    "code": "BDLC",
    "name": "BONIDANGA LINK CABIN",
    "name_other": "BONIDANGA LINK CABIN",
    "lat": "24.822107",
    "long": "87.798271"
  },
  {
    "code": "BDLN",
    "name": "BORDOLANI",
    "name_other": "BORDOLANI",
    "lat": "27.422900",
    "long": "94.432640"
  },
  {
    "code": "BDM",
    "name": "BADAMI",
    "name_other": "BADAMI",
    "lat": "15.959100",
    "long": "75.676900"
  },
  {
    "code": "BDMA",
    "name": "BUDHMA",
    "name_other": "BUDHMA",
    "lat": "25.902468",
    "long": "86.856709"
  },
  {
    "code": "BDME",
    "name": "BAIDYANATHDHAM",
    "name_other": "BAIDYANATHDHAM",
    "lat": "24.489200",
    "long": "86.692000"
  },
  {
    "code": "BDMJ",
    "name": "BHODWAL MAJRI",
    "name_other": "BHODWAL MAJRI",
    "lat": "29.185100",
    "long": "77.008200"
  },
  {
    "code": "BDN",
    "name": "BHADAN",
    "name_other": "BHADAN",
    "lat": "26.979400",
    "long": "78.737500"
  },
  {
    "code": "BDNH",
    "name": "BHUDEVINAGAR HALT",
    "name_other": "BHUDEVINAGAR HALT",
    "lat": "",
    "long": ""
  },
  {
    "code": "BDNK",
    "name": "BODINAYAKKANUR",
    "name_other": "BODINAYAKKANUR",
    "lat": "10.020751",
    "long": "77.346754"
  },
  {
    "code": "BDNP",
    "name": "BIDANPUR",
    "name_other": "BIDANPUR",
    "lat": "25.585300",
    "long": "81.442300"
  },
  {
    "code": "BDO",
    "name": "BAHALDA ROAD",
    "name_other": "BAHALDA ROAD",
    "lat": "22.440700",
    "long": "86.163900"
  },
  {
    "code": "BDPA",
    "name": "BADALPUR PH",
    "name_other": "BADALPUR PH",
    "lat": "21.710200",
    "long": "87.615900"
  },
  {
    "code": "BDPG",
    "name": "BADA PADAGAON",
    "name_other": "BADA PADAGAON",
    "lat": "20.570278",
    "long": "85.873518"
  },
  {
    "code": "BDPK",
    "name": "BURHAPANKA",
    "name_other": "BURHAPANKA",
    "lat": "20.852957",
    "long": "85.255623"
  },
  {
    "code": "BDPL",
    "name": "BANDARUPALLE",
    "name_other": "BANDARUPALLE",
    "lat": "16.365100",
    "long": "80.362400"
  },
  {
    "code": "BDPR",
    "name": "BRINDABANPUR",
    "name_other": "BRINDABANPUR",
    "lat": "23.313100",
    "long": "87.293300"
  },
  {
    "code": "BDRI",
    "name": "BHADRAULI",
    "name_other": "BHADRAULI",
    "lat": "26.894154",
    "long": "78.482157"
  },
  {
    "code": "BDRL",
    "name": "BYADARAHALLI",
    "name_other": "BYADARAHALLI",
    "lat": "12.502280",
    "long": "76.753106"
  },
  {
    "code": "BDS",
    "name": "BARADIGHI",
    "name_other": "BARADIGHI",
    "lat": "26.801800",
    "long": "88.740300"
  },
  {
    "code": "BDSW",
    "name": "BUDHSINGHWALA",
    "name_other": "BUDHSINGHWALA",
    "lat": "29.832156",
    "long": "74.222260"
  },
  {
    "code": "BDT",
    "name": "BORDUBI ROAD",
    "name_other": "BORDUBI ROAD",
    "lat": "27.399051",
    "long": "95.314465"
  },
  {
    "code": "BDTS",
    "name": "BANDRA TERMINUS",
    "name_other": "BANDRA TERMINUS",
    "lat": "19.062341",
    "long": "72.840965"
  },
  {
    "code": "BDU",
    "name": "BADNAPUR",
    "name_other": "BADNAPUR",
    "lat": "19.874419",
    "long": "75.722923"
  },
  {
    "code": "BDUA",
    "name": "BASUDEOPUR CHANDEL H",
    "name_other": "BASUDEOPUR CHANDEL H",
    "lat": "25.647407",
    "long": "85.545216"
  },
  {
    "code": "BDVL",
    "name": "BUDVEL",
    "name_other": "BUDVEL",
    "lat": "17.309800",
    "long": "78.424900"
  },
  {
    "code": "BDVR",
    "name": "BODDAVARA",
    "name_other": "BODDAVARA",
    "lat": "18.175300",
    "long": "83.112700"
  },
  {
    "code": "BDVT",
    "name": "BHADRAVATI",
    "name_other": "BHADRAVATI",
    "lat": "13.842399",
    "long": "75.702802"
  },
  {
    "code": "BDW",
    "name": "BANDANWARA",
    "name_other": "BANDANWARA",
    "lat": "26.125311",
    "long": "74.691389"
  },
  {
    "code": "BDWA",
    "name": "BADHWA BARA",
    "name_other": "BADHWA BARA",
    "lat": "23.294300",
    "long": "81.286700"
  },
  {
    "code": "BDWD",
    "name": "BODWAD",
    "name_other": "BODWAD",
    "lat": "20.903763",
    "long": "76.017226"
  },
  {
    "code": "BDWL",
    "name": "BIRADHWAL",
    "name_other": "BIRADHWAL",
    "lat": "29.152311",
    "long": "73.887348"
  },
  {
    "code": "BDWS",
    "name": "BADARWAS",
    "name_other": "BADARWAS",
    "lat": "24.983510",
    "long": "77.561998"
  },
  {
    "code": "BDXT",
    "name": "BASAI DHANKOT",
    "name_other": "BASAI DHANKOT",
    "lat": "28.464400",
    "long": "76.982900"
  },
  {
    "code": "BDXX",
    "name": "BADEARAPUR",
    "name_other": "BADEARAPUR",
    "lat": "19.011164",
    "long": "81.837587"
  },
  {
    "code": "BDY",
    "name": "BUDDIREDDIPPATI",
    "name_other": "BUDDIREDDIPPATI",
    "lat": "12.045000",
    "long": "78.313100"
  },
  {
    "code": "BDYK",
    "name": "BINDAYAKA",
    "name_other": "BINDAYAKA",
    "lat": "26.924404",
    "long": "75.659752"
  },
  {
    "code": "BDYP",
    "name": "BIDYADHARPUR",
    "name_other": "BIDYADHARPUR",
    "lat": "22.425152",
    "long": "88.452902"
  },
  {
    "code": "BDYR",
    "name": "BIDYADABRI",
    "name_other": "BIDYADABRI",
    "lat": "26.277900",
    "long": "89.765703"
  },
  {
    "code": "BDZ",
    "name": "BADKULLA",
    "name_other": "BADKULLA",
    "lat": "23.304500",
    "long": "88.526400"
  },
  {
    "code": "BE",
    "name": "BAREILLY(NR)",
    "name_other": "BAREILLY(NR)",
    "lat": "28.337134",
    "long": "79.410824"
  },
  {
    "code": "BEA",
    "name": "BIHIYA",
    "name_other": "BIHIYA",
    "lat": "25.558700",
    "long": "84.448800"
  },
  {
    "code": "BEAS",
    "name": "BEAS",
    "name_other": "BEAS",
    "lat": "31.519800",
    "long": "75.291200"
  },
  {
    "code": "BEB",
    "name": "BELDANGA",
    "name_other": "BELDANGA",
    "lat": "23.932300",
    "long": "88.243200"
  },
  {
    "code": "BEC",
    "name": "BERACH JN. CABIN",
    "name_other": "BERACH JN. CABIN",
    "lat": "24.896402",
    "long": "74.615192"
  },
  {
    "code": "BECN",
    "name": "BIKANER EAST",
    "name_other": "BIKANER EAST",
    "lat": "27.972875",
    "long": "73.369274"
  },
  {
    "code": "BED",
    "name": "BASERI",
    "name_other": "BASERI",
    "lat": "26.747412",
    "long": "77.543435"
  },
  {
    "code": "BEDM",
    "name": "BEDHAM",
    "name_other": "BEDHAM",
    "lat": "27.453979",
    "long": "77.209511"
  },
  {
    "code": "BEE",
    "name": "BEBEJIA",
    "name_other": "BEBEJIA",
    "lat": "26.310035",
    "long": "92.640806"
  },
  {
    "code": "BEF",
    "name": "BHUPDEOPUR",
    "name_other": "BHUPDEOPUR",
    "lat": "21.975200",
    "long": "83.260200"
  },
  {
    "code": "BEG",
    "name": "BEHTAGOKUL",
    "name_other": "BEHTAGOKUL",
    "lat": "27.530600",
    "long": "80.055000"
  },
  {
    "code": "BEH",
    "name": "BAGDIHI",
    "name_other": "BAGDIHI",
    "lat": "21.951100",
    "long": "84.186400"
  },
  {
    "code": "BEHI",
    "name": "BENNEHALLI",
    "name_other": "BENNEHALLI",
    "lat": "14.787451",
    "long": "76.119087"
  },
  {
    "code": "BEHJ",
    "name": "BEHAJ",
    "name_other": "BEHAJ",
    "lat": "27.481400",
    "long": "77.396100"
  },
  {
    "code": "BEHR",
    "name": "BEOHARI",
    "name_other": "BEOHARI",
    "lat": "24.000449",
    "long": "81.379895"
  },
  {
    "code": "BEHS",
    "name": "BIHAR SHARIF",
    "name_other": "BIHAR SHARIF",
    "lat": "25.206500",
    "long": "85.539400"
  },
  {
    "code": "BEHT",
    "name": "BIHAT HALT",
    "name_other": "BIHAT HALT",
    "lat": "25.451180",
    "long": "86.028957"
  },
  {
    "code": "BEJ",
    "name": "BENIGANJ",
    "name_other": "BENIGANJ",
    "lat": "27.300000",
    "long": "80.440700"
  },
  {
    "code": "BEK",
    "name": "BUNDKI",
    "name_other": "BUNDKI",
    "lat": "29.522700",
    "long": "78.393400"
  },
  {
    "code": "BELA",
    "name": "BELA",
    "name_other": "BELA",
    "lat": "24.978900",
    "long": "84.981800"
  },
  {
    "code": "BELD",
    "name": "BELKHERA",
    "name_other": "BELKHERA",
    "lat": "22.982101",
    "long": "79.300089"
  },
  {
    "code": "BELT",
    "name": "BELA",
    "name_other": "BELA",
    "lat": "25.038291",
    "long": "86.998502"
  },
  {
    "code": "BEM",
    "name": "BADAUN",
    "name_other": "BADAUN",
    "lat": "28.027712",
    "long": "79.136244"
  },
  {
    "code": "BEML",
    "name": "BEML NAGAR",
    "name_other": "BEML NAGAR",
    "lat": "12.978600",
    "long": "78.241900"
  },
  {
    "code": "BENA",
    "name": "BELONIA",
    "name_other": "BELONIA",
    "lat": "23.247994",
    "long": "91.484501"
  },
  {
    "code": "BENL",
    "name": "BENL",
    "name_other": "BENL",
    "lat": "16.384200",
    "long": "75.882100"
  },
  {
    "code": "BEO",
    "name": "BIROHE",
    "name_other": "BIROHE",
    "lat": "25.174000",
    "long": "82.449900"
  },
  {
    "code": "BEP",
    "name": "BHEERPUR",
    "name_other": "BHEERPUR",
    "lat": "25.265000",
    "long": "81.989200"
  },
  {
    "code": "BEPR",
    "name": "BELAPUR CBD",
    "name_other": "BELAPUR CBD",
    "lat": "19.018711",
    "long": "73.038676"
  },
  {
    "code": "BEQ",
    "name": "BELUR",
    "name_other": "BELUR",
    "lat": "22.636300",
    "long": "88.339900"
  },
  {
    "code": "BER",
    "name": "BEAWAR",
    "name_other": "BEAWAR",
    "lat": "26.108508",
    "long": "74.314571"
  },
  {
    "code": "BERO",
    "name": "BERO",
    "name_other": "BERO",
    "lat": "23.548251",
    "long": "86.726589"
  },
  {
    "code": "BES",
    "name": "BES",
    "name_other": "BES",
    "lat": "23.905641",
    "long": "85.324254"
  },
  {
    "code": "BET",
    "name": "BARETH",
    "name_other": "BARETH",
    "lat": "23.915107",
    "long": "77.999840"
  },
  {
    "code": "BEU",
    "name": "BISHESHWARGANJ",
    "name_other": "BISHESHWARGANJ",
    "lat": "27.340900",
    "long": "81.833400"
  },
  {
    "code": "BEW",
    "name": "BETAVAD",
    "name_other": "BETAVAD",
    "lat": "21.149600",
    "long": "74.886500"
  },
  {
    "code": "BEX",
    "name": "BELBONI",
    "name_other": "BELBONI",
    "lat": "23.277300",
    "long": "87.153800"
  },
  {
    "code": "BEY",
    "name": "BUGGANIPALLE",
    "name_other": "BUGGANIPALLE",
    "lat": "15.486272",
    "long": "78.195362"
  },
  {
    "code": "BFD",
    "name": "BORHAT",
    "name_other": "BORHAT",
    "lat": "27.163793",
    "long": "95.277042"
  },
  {
    "code": "BFE",
    "name": "BAHAWAL BASI",
    "name_other": "BAHAWAL BASI",
    "lat": "30.147200",
    "long": "74.279200"
  },
  {
    "code": "BFF",
    "name": "BARABHATI",
    "name_other": "BARABHATI",
    "lat": "20.863400",
    "long": "80.061300"
  },
  {
    "code": "BFG",
    "name": "BAGTHAR",
    "name_other": "BAGTHAR",
    "lat": "26.796412",
    "long": "77.522369"
  },
  {
    "code": "BFJ",
    "name": "BHORAS BUDRUKH",
    "name_other": "BHORAS BUDRUKH",
    "lat": "20.537971",
    "long": "75.013962"
  },
  {
    "code": "BFM",
    "name": "BHALUI",
    "name_other": "BHALUI",
    "lat": "25.085500",
    "long": "86.166800"
  },
  {
    "code": "BFP",
    "name": "BILOCHPURA",
    "name_other": "BILOCHPURA",
    "lat": "27.202179",
    "long": "77.986729"
  },
  {
    "code": "BFPA",
    "name": "BHOPATPUR",
    "name_other": "BHOPATPUR",
    "lat": "28.452000",
    "long": "79.812200"
  },
  {
    "code": "BFQ",
    "name": "BENDI",
    "name_other": "BENDI",
    "lat": "23.763300",
    "long": "84.416700"
  },
  {
    "code": "BFR",
    "name": "BEKAL FORT",
    "name_other": "BEKAL FORT",
    "lat": "12.385904",
    "long": "75.043166"
  },
  {
    "code": "BFT",
    "name": "BHABTA",
    "name_other": "BHABTA",
    "lat": "23.986900",
    "long": "88.241500"
  },
  {
    "code": "BFV",
    "name": "BAHELIA BUZURG",
    "name_other": "BAHELIA BUZURG",
    "lat": "28.046834",
    "long": "80.512447"
  },
  {
    "code": "BFW",
    "name": "BYATRAYANHALLI",
    "name_other": "BYATRAYANHALLI",
    "lat": "13.002200",
    "long": "77.988700"
  },
  {
    "code": "BFX",
    "name": "BAGHI GHAUSPUR",
    "name_other": "BAGHI GHAUSPUR",
    "lat": "25.052000",
    "long": "85.684100"
  },
  {
    "code": "BFY",
    "name": "BHESANA",
    "name_other": "BHESANA",
    "lat": "25.824010",
    "long": "73.717720"
  },
  {
    "code": "BFZ",
    "name": "BHANDARTIKURI",
    "name_other": "BHANDARTIKURI",
    "lat": "23.432800",
    "long": "88.329400"
  },
  {
    "code": "BG",
    "name": "BHONGIR",
    "name_other": "BHONGIR",
    "lat": "17.525000",
    "long": "78.898800"
  },
  {
    "code": "BGA",
    "name": "BAGALIA",
    "name_other": "BAGALIA",
    "lat": "23.447026",
    "long": "86.519136"
  },
  {
    "code": "BGAE",
    "name": "BALAGARH",
    "name_other": "BALAGARH",
    "lat": "23.122000",
    "long": "88.453000"
  },
  {
    "code": "BGAN",
    "name": "BANGAIN",
    "name_other": "BANGAIN",
    "lat": "27.239000",
    "long": "81.905900"
  },
  {
    "code": "BGAR",
    "name": "BANGARI",
    "name_other": "BANGARI",
    "lat": "26.537800",
    "long": "84.921000"
  },
  {
    "code": "BGBI",
    "name": "BAGRIBARI",
    "name_other": "BAGRIBARI",
    "lat": "",
    "long": ""
  },
  {
    "code": "BGBR",
    "name": "BAGBAHRA",
    "name_other": "BAGBAHRA",
    "lat": "21.046000",
    "long": "82.383900"
  },
  {
    "code": "BGD",
    "name": "BARA GUDAH",
    "name_other": "BARA GUDAH",
    "lat": "29.697400",
    "long": "75.001400"
  },
  {
    "code": "BGDI",
    "name": "BAGADIA PH",
    "name_other": "BAGADIA PH",
    "lat": "20.278803",
    "long": "86.586093"
  },
  {
    "code": "BGDS",
    "name": "BHAGWANPUR DESU",
    "name_other": "BHAGWANPUR DESU",
    "lat": "25.826700",
    "long": "85.845700"
  },
  {
    "code": "BGF",
    "name": "BAGILA",
    "name_other": "BAGILA",
    "lat": "23.160300",
    "long": "88.122200"
  },
  {
    "code": "BGH",
    "name": "BAGHAULI",
    "name_other": "BAGHAULI",
    "lat": "27.227900",
    "long": "80.296100"
  },
  {
    "code": "BGHI",
    "name": "BAGHAI ROAD",
    "name_other": "BAGHAI ROAD",
    "lat": "24.555633",
    "long": "81.018393"
  },
  {
    "code": "BGHT",
    "name": "BARKA GAON",
    "name_other": "BARKA GAON",
    "lat": "26.147710",
    "long": "84.639721"
  },
  {
    "code": "BGHU",
    "name": "BORRAGUHALLU",
    "name_other": "BORRAGUHALLU",
    "lat": "18.275300",
    "long": "83.039900"
  },
  {
    "code": "BGJT",
    "name": "BAGHA JATIN",
    "name_other": "BAGHA JATIN",
    "lat": "22.482200",
    "long": "88.387000"
  },
  {
    "code": "BGK",
    "name": "BAGALKOT",
    "name_other": "BAGALKOT",
    "lat": "16.178900",
    "long": "75.700300"
  },
  {
    "code": "BGKA",
    "name": "BANGURKELA",
    "name_other": "BANGURKELA",
    "lat": "22.276900",
    "long": "84.973500"
  },
  {
    "code": "BGKT",
    "name": "BHAGAT KI KOTHI",
    "name_other": "BHAGAT KI KOTHI",
    "lat": "26.248087",
    "long": "73.012927"
  },
  {
    "code": "BGL",
    "name": "BAGULA",
    "name_other": "BAGULA",
    "lat": "23.335045",
    "long": "88.645984"
  },
  {
    "code": "BGLI",
    "name": "BARGOLAI",
    "name_other": "BARGOLAI",
    "lat": "27.287800",
    "long": "95.703800"
  },
  {
    "code": "BGM",
    "name": "BELAGAVI",
    "name_other": "BELAGAVI",
    "lat": "15.849203",
    "long": "74.509524"
  },
  {
    "code": "BGMR",
    "name": "BAGUMRA",
    "name_other": "BAGUMRA",
    "lat": "21.149500",
    "long": "72.995900"
  },
  {
    "code": "BGMU",
    "name": "BANGARMAU",
    "name_other": "BANGARMAU",
    "lat": "26.891700",
    "long": "80.221900"
  },
  {
    "code": "BGN",
    "name": "BORGAON",
    "name_other": "BORGAON",
    "lat": "20.728839",
    "long": "77.179430"
  },
  {
    "code": "BGNA",
    "name": "BALGONA",
    "name_other": "BALGONA",
    "lat": "23.457900",
    "long": "87.950100"
  },
  {
    "code": "BGND",
    "name": "BOGINADI",
    "name_other": "BOGINADI",
    "lat": "27.394326",
    "long": "94.171028"
  },
  {
    "code": "BGNP",
    "name": "BANAGANAPALLE",
    "name_other": "BANAGANAPALLE",
    "lat": "15.322441",
    "long": "78.250540"
  },
  {
    "code": "BGNR",
    "name": "B.G.NAGAR",
    "name_other": "B.G.NAGAR",
    "lat": "12.968543",
    "long": "76.733234"
  },
  {
    "code": "BGO",
    "name": "BOGRI ROAD",
    "name_other": "BOGRI ROAD",
    "lat": "22.882000",
    "long": "87.326000"
  },
  {
    "code": "BGP",
    "name": "BHAGALPUR",
    "name_other": "BHAGALPUR",
    "lat": "25.242229",
    "long": "86.977112"
  },
  {
    "code": "BGPA",
    "name": "BAGESHAPURA",
    "name_other": "BAGESHAPURA",
    "lat": "13.119939",
    "long": "76.217823"
  },
  {
    "code": "BGPL",
    "name": "BAGHUAPAL",
    "name_other": "BAGHUAPAL",
    "lat": "21.042089",
    "long": "86.013036"
  },
  {
    "code": "BGPR",
    "name": "BHAGWANPURA",
    "name_other": "BHAGWANPURA",
    "lat": "25.419052",
    "long": "73.363352"
  },
  {
    "code": "BGQ",
    "name": "BHONGAON",
    "name_other": "BHONGAON",
    "lat": "27.258800",
    "long": "79.165500"
  },
  {
    "code": "BGRA",
    "name": "BAGHNAPARA",
    "name_other": "BAGHNAPARA",
    "lat": "23.241600",
    "long": "88.329200"
  },
  {
    "code": "BGRD",
    "name": "BELIAGHATA ROAD",
    "name_other": "BELIAGHATA ROAD",
    "lat": "22.674768",
    "long": "88.607225"
  },
  {
    "code": "BGRM",
    "name": "BIGGABAS RAMSARA",
    "name_other": "BIGGABAS RAMSARA",
    "lat": "28.047792",
    "long": "74.201647"
  },
  {
    "code": "BGRR",
    "name": "BAGARPUR HALT",
    "name_other": "BAGARPUR HALT",
    "lat": "29.079126",
    "long": "78.278103"
  },
  {
    "code": "BGS",
    "name": "BEGUSARAI",
    "name_other": "BEGUSARAI",
    "lat": "25.425156",
    "long": "86.134336"
  },
  {
    "code": "BGSF",
    "name": "BISUGIRSHARIF",
    "name_other": "BISUGIRSHARIF",
    "lat": "18.347600",
    "long": "79.483100"
  },
  {
    "code": "BGTA",
    "name": "BAGRA TAWA",
    "name_other": "BAGRA TAWA",
    "lat": "22.631121",
    "long": "77.994117"
  },
  {
    "code": "BGTN",
    "name": "BHAGTANWALA",
    "name_other": "BHAGTANWALA",
    "lat": "31.596400",
    "long": "74.880500"
  },
  {
    "code": "BGU",
    "name": "BAIRAGNIA",
    "name_other": "BAIRAGNIA",
    "lat": "26.738252",
    "long": "85.273304"
  },
  {
    "code": "BGUA",
    "name": "BAIGUDA",
    "name_other": "BAIGUDA",
    "lat": "18.826834",
    "long": "82.965577"
  },
  {
    "code": "BGVN",
    "name": "BHIGWAN",
    "name_other": "BHIGWAN",
    "lat": "18.316900",
    "long": "74.774700"
  },
  {
    "code": "BGWD",
    "name": "BAGEWADI H",
    "name_other": "BAGEWADI H",
    "lat": "16.307701",
    "long": "74.753530"
  },
  {
    "code": "BGWI",
    "name": "BEGDEWADI",
    "name_other": "BEGDEWADI",
    "lat": "18.700603",
    "long": "73.708777"
  },
  {
    "code": "BGWR",
    "name": "BAGHWAR",
    "name_other": "BAGHWAR",
    "lat": "0.000000",
    "long": "0.000000"
  },
  {
    "code": "BGX",
    "name": "BAGRI SAJJANPUR",
    "name_other": "BAGRI SAJJANPUR",
    "lat": "25.916519",
    "long": "73.821602"
  },
  {
    "code": "BGY",
    "name": "BANGRIPOSI",
    "name_other": "BANGRIPOSI",
    "lat": "22.130700",
    "long": "86.501400"
  },
  {
    "code": "BGZ",
    "name": "BAHADURGARH",
    "name_other": "BAHADURGARH",
    "lat": "28.701053",
    "long": "76.931076"
  },
  {
    "code": "BH",
    "name": "BHARUCH JN",
    "name_other": "BHARUCH JN",
    "lat": "21.707300",
    "long": "72.998000"
  },
  {
    "code": "BHA",
    "name": "BHANDAI",
    "name_other": "BHANDAI",
    "lat": "27.068794",
    "long": "77.966537"
  },
  {
    "code": "BHAD",
    "name": "BARHAPUR HALT",
    "name_other": "BARHAPUR HALT",
    "lat": "25.427152",
    "long": "85.860043"
  },
  {
    "code": "BHAK",
    "name": "BANHERA KHAS",
    "name_other": "BANHERA KHAS",
    "lat": "0.000000",
    "long": "0.000000"
  },
  {
    "code": "BHAL",
    "name": "BHATIEL",
    "name_other": "BHATIEL",
    "lat": "22.477500",
    "long": "72.835000"
  },
  {
    "code": "BHAS",
    "name": "BHOJRAS",
    "name_other": "BHOJRAS",
    "lat": "25.788300",
    "long": "74.634400"
  },
  {
    "code": "BHAT",
    "name": "BHATPURA",
    "name_other": "BHATPURA",
    "lat": "26.327114",
    "long": "77.674541"
  },
  {
    "code": "BHAU",
    "name": "BHALUA",
    "name_other": "BHALUA",
    "lat": "24.678877",
    "long": "86.690021"
  },
  {
    "code": "BHAW",
    "name": "BLOCKHUT A",
    "name_other": "BLOCKHUT A",
    "lat": "26.801800",
    "long": "80.980200"
  },
  {
    "code": "BHB",
    "name": "BADLA GHAT",
    "name_other": "BADLA GHAT",
    "lat": "25.553400",
    "long": "86.586800"
  },
  {
    "code": "BHBK",
    "name": "BODHADI BUJRUG",
    "name_other": "BODHADI BUJRUG",
    "lat": "19.464003",
    "long": "78.166351"
  },
  {
    "code": "BHBR",
    "name": "BATHUA BAZAR HALT",
    "name_other": "BATHUA BAZAR HALT",
    "lat": "26.497051",
    "long": "84.232418"
  },